[
  {
    "code": "BIS",
    "name": "Bismarck Municipal Airport",
    "city": "Bismarck",
    "state": "North Dakota",
    "country": "United States",
    "tz": "America/Chicago",
    "type": "Airports",
    "stateCode": "ND",
    "countryCode": "US",
    "location": {
      "type": "Point",
      "coordinates": [
        -100.757,
        46.7745
      ]
    }
  },
  {
    "code": "ACT",
    "name": "Waco Regional Airport",
    "city": "Waco",
    "state": "Texas",
    "country": "United States",
    "tz": "America/Chicago",
    "type": "Airports",
    "stateCode": "TX",
    "countryCode": "US",
    "location": {
      "type": "Point",
      "coordinates": [
        -97.2234,
        31.609
      ]
    }
  },
  {
    "code": "ABV",
    "name": "Abuja International Airport",
    "city": "Gwagwa",
    "state": "Abuja Capital Territory",
    "country": "Nigeria",
    "tz": "Africa/Lagos",
    "type": "Airports",
    "stateCode": "FCT",
    "countryCode": "NG",
    "location": {
      "type": "Point",
      "coordinates": [
        7.2661,
        9.0056
      ]
    }
  },
  {
    "code": "ABL",
    "name": "Ambler Airport",
    "city": "Kiana",
    "state": "Alaska",
    "country": "United States",
    "tz": "America/Anchorage",
    "type": "Airports",
    "stateCode": "AK",
    "countryCode": "US",
    "location": {
      "type": "Point",
      "coordinates": [
        -157.854,
        67.1058
      ]
    }
  },
  {
    "code": "ACX",
    "name": "Xingyi",
    "city": "Xingyi",
    "state": "Guizhou",
    "country": "China",
    "tz": "Asia/Chongqing",
    "type": "Airports",
    "stateCode": "Guizhou",
    "countryCode": "CN",
    "location": {
      "type": "Point",
      "coordinates": [
        104.89,
        25.0887
      ]
    }
  },
  {
    "code": "AEX",
    "name": "Alexandria International Airport",
    "city": "Alexandria",
    "state": "Louisiana",
    "country": "United States",
    "tz": "America/Chicago",
    "type": "Airports",
    "stateCode": "LA",
    "countryCode": "US",
    "location": {
      "type": "Point",
      "coordinates": [
        -92.5417,
        31.323
      ]
    }
  },
  {
    "code": "AET",
    "name": "Allakaket Airport",
    "city": "Allakaket",
    "state": "Alaska",
    "country": "United States",
    "tz": "America/Anchorage",
    "type": "Airports",
    "stateCode": "AK",
    "countryCode": "US",
    "location": {
      "type": "Point",
      "coordinates": [
        -152.65,
        66.55
      ]
    }
  },
  {
    "code": "ABD",
    "name": "",
    "city": "Abadan",
    "state": "Khuzestan",
    "country": "Iran",
    "tz": "Asia/Tehran",
    "type": "Airports",
    "stateCode": "Khuzestan Province",
    "countryCode": "IR",
    "location": {
      "type": "Point",
      "coordinates": [
        48.3032,
        30.3374
      ]
    }
  },
  {
    "code": "ACV",
    "name": "Arcata Airport",
    "city": "Mckinleyville",
    "state": "California",
    "country": "United States",
    "tz": "America/Los_Angeles",
    "type": "Airports",
    "stateCode": "CA",
    "countryCode": "US",
    "location": {
      "type": "Point",
      "coordinates": [
        -124.108,
        40.9698
      ]
    }
  },
  {
    "code": "ADE",
    "name": "Aden International Airport",
    "city": "Ash Shaykh Uthman",
    "state": "`Adan",
    "country": "Yemen",
    "tz": "Asia/Aden",
    "type": "Airports",
    "stateCode": "",
    "countryCode": "",
    "location": {
      "type": "Point",
      "coordinates": [
        45.0306,
        12.8278
      ]
    }
  },
  {
    "code": "ADU",
    "name": "Ardabil Airport",
    "city": "Ardabil",
    "state": "Ardabil",
    "country": "Iran",
    "tz": "Asia/Tehran",
    "type": "Airports",
    "stateCode": "Ardabil Province",
    "countryCode": "IR",
    "location": {
      "type": "Point",
      "coordinates": [
        48.2951,
        38.2465
      ]
    }
  },
  {
    "code": "ACY",
    "name": "Atlantic City International Airport",
    "city": "Egg Harbor City",
    "state": "New Jersey",
    "country": "United States",
    "tz": "America/New_York",
    "type": "Airports",
    "stateCode": "NJ",
    "countryCode": "US",
    "location": {
      "type": "Point",
      "coordinates": [
        -74.5716,
        39.4512
      ]
    },
    "macCode": "AIY"
  },
  {
    "code": "AAR",
    "name": "Tirstrup Airport",
    "city": "Kolind",
    "state": "Midtjylland",
    "country": "Denmark",
    "tz": "Europe/Copenhagen",
    "type": "Airports",
    "stateCode": "",
    "countryCode": "DK",
    "location": {
      "type": "Point",
      "coordinates": [
        10.6154,
        56.3088
      ]
    }
  },
  {
    "code": "ADJ",
    "name": "Al Matar Airport",
    "city": "Amman",
    "state": "'Amman",
    "country": "Jordan",
    "tz": "Asia/Amman",
    "type": "Airports",
    "stateCode": "Amman Governorate",
    "countryCode": "JO",
    "location": {
      "type": "Point",
      "coordinates": [
        35.9822,
        31.973
      ]
    }
  },
  {
    "code": "ABX",
    "name": "Albury Airport",
    "city": "Albury",
    "state": "New South Wales",
    "country": "Australia",
    "tz": "Australia/Sydney",
    "type": "Airports",
    "stateCode": "NSW",
    "countryCode": "AU",
    "location": {
      "type": "Point",
      "coordinates": [
        146.956,
        -36.0678
      ]
    }
  },
  {
    "code": "ACA",
    "name": "General Juan N Alvarez International Airport",
    "city": "Acapulco",
    "state": "Guerrero",
    "country": "Mexico",
    "tz": "America/Mexico_City",
    "type": "Airports",
    "stateCode": "Gro.",
    "countryCode": "MX",
    "location": {
      "type": "Point",
      "coordinates": [
        -99.7536,
        16.7561
      ]
    }
  },
  {
    "code": "AAE",
    "name": "El Mellah Airport",
    "city": "El Tarf",
    "state": "Annaba",
    "country": "Algeria",
    "tz": "Africa/Algiers",
    "type": "Airports",
    "stateCode": "",
    "countryCode": "DZ",
    "location": {
      "type": "Point",
      "coordinates": [
        7.8103,
        36.8236
      ]
    }
  },
  {
    "code": "AES",
    "name": "Vigra Airport",
    "city": "Vigra",
    "state": "More og Romsdal",
    "country": "Norway",
    "tz": "Europe/Oslo",
    "type": "Airports",
    "stateCode": "Møre og Romsdal",
    "countryCode": "NO",
    "location": {
      "type": "Point",
      "coordinates": [
        6.11129,
        62.5607
      ]
    }
  },
  {
    "code": "ABC",
    "name": "Los Llanos",
    "city": "Albacete",
    "state": "Castilla-la Mancha",
    "country": "Spain",
    "tz": "Europe/Madrid",
    "type": "Airports",
    "stateCode": "CM",
    "countryCode": "ES",
    "location": {
      "type": "Point",
      "coordinates": [
        -1.85,
        38.9833
      ]
    }
  },
  {
    "code": "ADD",
    "name": "Bole International Airport",
    "city": "Addis Ababa",
    "state": "Debub Shewa",
    "country": "Ethiopia",
    "tz": "Africa/Addis_Ababa",
    "type": "Airports",
    "stateCode": "",
    "countryCode": "",
    "location": {
      "type": "Point",
      "coordinates": [
        38.8011,
        8.9783
      ]
    }
  },
  {
    "code": "ACC",
    "name": "Kotoka International Airport",
    "city": "Accra",
    "state": "Greater Accra",
    "country": "Ghana",
    "tz": "Africa/Accra",
    "type": "Airports",
    "stateCode": "Greater Accra Region",
    "countryCode": "GH",
    "location": {
      "type": "Point",
      "coordinates": [
        -0.17,
        5.5964
      ]
    }
  },
  {
    "code": "AAN",
    "name": "Al Ain Airport",
    "city": "Ayn al Faydah",
    "state": "Abu Dhabi",
    "country": "United Arab Emirates",
    "tz": "Asia/Dubai",
    "type": "Airports",
    "stateCode": "Abu Dhabi",
    "countryCode": "AE",
    "location": {
      "type": "Point",
      "coordinates": [
        55.75,
        24.25
      ]
    }
  },
  {
    "code": "AFL",
    "name": "Alta Floresta Airport",
    "city": "Alta Floresta",
    "state": "Mato Grosso",
    "country": "Brazil",
    "tz": "America/Campo_Grande",
    "type": "Airports",
    "stateCode": "MT",
    "countryCode": "BR",
    "location": {
      "type": "Point",
      "coordinates": [
        -56.1044,
        -9.8661
      ]
    }
  },
  {
    "code": "AAL",
    "name": "Aalborg Airport",
    "city": "Norresundby",
    "state": "Nordjylland",
    "country": "Denmark",
    "tz": "Europe/Copenhagen",
    "type": "Airports",
    "stateCode": "",
    "countryCode": "DK",
    "location": {
      "type": "Point",
      "coordinates": [
        9.85606,
        57.0952
      ]
    }
  },
  {
    "code": "ACK",
    "name": "Nantucket Memorial Airport",
    "city": "Nantucket",
    "state": "Massachusetts",
    "country": "United States",
    "tz": "America/New_York",
    "type": "Airports",
    "stateCode": "MA",
    "countryCode": "US",
    "location": {
      "type": "Point",
      "coordinates": [
        -70.0649,
        41.2568
      ]
    }
  },
  {
    "code": "ADQ",
    "name": "Kodiak Airport",
    "city": "Kodiak",
    "state": "Alaska",
    "country": "United States",
    "tz": "America/Anchorage",
    "type": "Airports",
    "stateCode": "AK",
    "countryCode": "US",
    "location": {
      "type": "Point",
      "coordinates": [
        -152.512,
        57.7545
      ]
    }
  },
  {
    "code": "ACE",
    "name": "Arrecife Airport",
    "city": "San Bartolomé",
    "state": "Canary Islands",
    "country": "Spain",
    "tz": "Atlantic/Canary",
    "type": "Airports",
    "stateCode": "CN",
    "countryCode": "ES",
    "location": {
      "type": "Point",
      "coordinates": [
        -13.6085,
        28.9521
      ]
    }
  },
  {
    "code": "ABA",
    "name": "Abakan",
    "city": "Abakan",
    "state": "Khakasiya",
    "country": "Russian Federation",
    "tz": "Asia/Krasnoyarsk",
    "type": "Airports",
    "stateCode": "Republic of Khakassia",
    "countryCode": "RU",
    "location": {
      "type": "Point",
      "coordinates": [
        91.4333,
        53.7167
      ]
    }
  },
  {
    "code": "ABZ",
    "name": "Aberdeen Dyce International Airport",
    "city": "Aberdeen",
    "state": "Scotland",
    "country": "United Kingdom",
    "tz": "Europe/London",
    "type": "Airports",
    "stateCode": "Scotland",
    "countryCode": "GB",
    "location": {
      "type": "Point",
      "coordinates": [
        -2.20373,
        57.2004
      ]
    }
  },
  {
    "code": "AAY",
    "name": "Al Gaidah Airport",
    "city": "Al Ghaydah",
    "state": "Hadramawt",
    "country": "Yemen",
    "tz": "Asia/Aden",
    "type": "Airports",
    "stateCode": "Hadhramaut Governorate",
    "countryCode": "YE",
    "location": {
      "type": "Point",
      "coordinates": [
        52.1694,
        16.1947
      ]
    }
  },
  {
    "code": "ABI",
    "name": "Abilene Regional Airport",
    "city": "Abilene",
    "state": "Texas",
    "country": "United States",
    "tz": "America/Chicago",
    "type": "Airports",
    "stateCode": "TX",
    "countryCode": "US",
    "location": {
      "type": "Point",
      "coordinates": [
        -99.6803,
        32.4164
      ]
    }
  },
  {
    "code": "ADB",
    "name": "Gaziemir Airport",
    "city": "Azmir",
    "state": "İzmir",
    "country": "Turkey",
    "tz": "Europe/Istanbul",
    "type": "Airports",
    "stateCode": "İzmir",
    "countryCode": "TR",
    "location": {
      "type": "Point",
      "coordinates": [
        27.1603,
        38.32
      ]
    },
    "macCode": "IZM"
  },
  {
    "code": "ABQ",
    "name": "Albuquerque International Airport",
    "city": "Albuquerque",
    "state": "New Mexico",
    "country": "United States",
    "tz": "America/Denver",
    "type": "Airports",
    "stateCode": "NM",
    "countryCode": "US",
    "location": {
      "type": "Point",
      "coordinates": [
        -106.625,
        35.0494
      ]
    }
  },
  {
    "code": "ABR",
    "name": "Aberdeen Regional Airport",
    "city": "Aberdeen",
    "state": "South Dakota",
    "country": "United States",
    "tz": "America/Chicago",
    "type": "Airports",
    "stateCode": "SD",
    "countryCode": "US",
    "location": {
      "type": "Point",
      "coordinates": [
        -98.4189,
        45.4536
      ]
    }
  },
  {
    "code": "AAQ",
    "name": "Olkhovka Airport",
    "city": "Novorossiysk",
    "state": "Krasnodarskiy Kray",
    "country": "Russia",
    "tz": "Europe/Moscow",
    "type": "Airports",
    "stateCode": "Krasnodar Krai",
    "countryCode": "RU",
    "location": {
      "type": "Point",
      "coordinates": [
        37.3167,
        44.9
      ]
    }
  },
  {
    "code": "ABJ",
    "name": "Abidjan Port Bouet Airport",
    "city": "Abidjan",
    "state": "Abidjan",
    "country": "Ivory Coast",
    "tz": "Africa/Abidjan",
    "type": "Airports",
    "stateCode": "Lagunes Region",
    "countryCode": "CI",
    "location": {
      "type": "Point",
      "coordinates": [
        -3.9292,
        5.2556
      ]
    }
  },
  {
    "code": "AGA",
    "name": "Almassira Airport",
    "city": "Agadir",
    "state": "Agadir",
    "country": "Morocco",
    "tz": "Africa/Casablanca",
    "type": "Airports",
    "stateCode": "Souss-Massa-Draa",
    "countryCode": "MA",
    "location": {
      "type": "Point",
      "coordinates": [
        -9.55,
        30.3833
      ]
    }
  },
  {
    "code": "AER",
    "name": "Adler Airport",
    "city": "Sochi",
    "state": "Krasnodarskiy Kray",
    "country": "Russia",
    "tz": "Europe/Moscow",
    "type": "Airports",
    "stateCode": "Krasnodar Krai",
    "countryCode": "RU",
    "location": {
      "type": "Point",
      "coordinates": [
        39.9552,
        43.447
      ]
    }
  },
  {
    "code": "ABE",
    "name": "Lehigh Valley International Airport",
    "city": "Allentown",
    "state": "Pennsylvania",
    "country": "United States",
    "tz": "America/New_York",
    "type": "Airports",
    "stateCode": "PA",
    "countryCode": "US",
    "location": {
      "type": "Point",
      "coordinates": [
        -75.4342,
        40.6514
      ]
    }
  },
  {
    "code": "AGP",
    "name": "Malaga Airport",
    "city": "Malaga",
    "state": "Andalucia",
    "country": "Spain",
    "tz": "Europe/Madrid",
    "type": "Airports",
    "stateCode": "AL",
    "countryCode": "ES",
    "location": {
      "type": "Point",
      "coordinates": [
        -4.49298,
        36.6749
      ]
    }
  },
  {
    "code": "ADZ",
    "name": "Sesquicentenario Airport",
    "city": "San Andrés",
    "state": "San Andres y Providencia",
    "country": "Colombia",
    "tz": "America/Bogota",
    "type": "Airports",
    "stateCode": "San Andrés and Providencia",
    "countryCode": "CO",
    "location": {
      "type": "Point",
      "coordinates": [
        -81.7092,
        12.5811
      ]
    }
  },
  {
    "code": "AGH",
    "name": "Angelholm Airport",
    "city": "Angelholm",
    "state": "Skane",
    "country": "Sweden",
    "tz": "Europe/Stockholm",
    "type": "Airports",
    "stateCode": "Skåne County",
    "countryCode": "SE",
    "location": {
      "type": "Point",
      "coordinates": [
        12.8675,
        56.2873
      ]
    }
  },
  {
    "code": "ADA",
    "name": "Sakirpasa Airport",
    "city": "Adana",
    "state": "Adana",
    "country": "Turkey",
    "tz": "Europe/Istanbul",
    "type": "Airports",
    "stateCode": "Adana",
    "countryCode": "TR",
    "location": {
      "type": "Point",
      "coordinates": [
        35.2803,
        36.9811
      ]
    }
  },
  {
    "code": "AEP",
    "name": "Aeroparque Jorge Newbery",
    "city": "Buenos Aires",
    "state": "Ciudad de Buenos Aires",
    "country": "Argentina",
    "tz": "America/Buenos_Aires",
    "type": "Airports",
    "stateCode": "CABA",
    "countryCode": "AR",
    "location": {
      "type": "Point",
      "coordinates": [
        -58.4113,
        -34.5617
      ]
    }
  },
  {
    "code": "ABY",
    "name": "Southwest Georgia Regional Airport",
    "city": "Albany",
    "state": "Georgia",
    "country": "United States",
    "tz": "America/New_York",
    "type": "Airports",
    "stateCode": "GA",
    "countryCode": "US",
    "location": {
      "type": "Point",
      "coordinates": [
        -84.1867,
        31.5328
      ]
    }
  },
  {
    "code": "AKL",
    "name": "Auckland International Airport",
    "city": "Manukau City",
    "state": "Auckland",
    "country": "New Zealand",
    "tz": "Pacific/Auckland",
    "type": "Airports",
    "stateCode": "Auckland",
    "countryCode": "NZ",
    "location": {
      "type": "Point",
      "coordinates": [
        174.782,
        -37.0085
      ]
    }
  },
  {
    "code": "AGS",
    "name": "Bush Field Airport",
    "city": "Augusta",
    "state": "Georgia",
    "country": "United States",
    "tz": "America/New_York",
    "type": "Airports",
    "stateCode": "GA",
    "countryCode": "US",
    "location": {
      "type": "Point",
      "coordinates": [
        -81.9732,
        33.3735
      ]
    }
  },
  {
    "code": "AGT",
    "name": "Alejo Garcia Airport",
    "city": "Presidente Franco",
    "state": "Alto Paraná",
    "country": "Paraguay",
    "tz": "America/Asuncion",
    "type": "Airports",
    "stateCode": "Alto Paraná Department",
    "countryCode": "PY",
    "location": {
      "type": "Point",
      "coordinates": [
        -54.6226,
        -25.5266
      ]
    }
  },
  {
    "code": "AMM",
    "name": "Queen Alia International Airport",
    "city": "Amman",
    "state": "'Amman",
    "country": "Jordan",
    "tz": "Asia/Amman",
    "type": "Airports",
    "stateCode": "Amman Governorate",
    "countryCode": "JO",
    "location": {
      "type": "Point",
      "coordinates": [
        35.9936,
        31.7231
      ]
    }
  },
  {
    "code": "ALP",
    "name": "Aleppo International Airport",
    "city": "Djibrine",
    "state": "H'alab",
    "country": "Syria",
    "tz": "Asia/Damascus",
    "type": "Airports",
    "stateCode": "",
    "countryCode": "",
    "location": {
      "type": "Point",
      "coordinates": [
        37.2267,
        36.1808
      ]
    }
  },
  {
    "code": "AHB",
    "name": "Abha Airport",
    "city": "Hajlah",
    "state": "Asir",
    "country": "Saudi Arabia",
    "tz": "Asia/Riyadh",
    "type": "Airports",
    "stateCode": "",
    "countryCode": "",
    "location": {
      "type": "Point",
      "coordinates": [
        42.6556,
        18.24
      ]
    }
  },
  {
    "code": "AJN",
    "name": "Comoros",
    "city": "Anjouan",
    "state": "Anjouan",
    "country": "Comoros",
    "tz": "Indian/Comoro",
    "type": "Airports",
    "stateCode": "Nzwani",
    "countryCode": "KM",
    "location": {
      "type": "Point",
      "coordinates": [
        44.3709,
        -12.2234
      ]
    }
  },
  {
    "code": "AHC",
    "name": "Amedee Army Air Field",
    "city": "Herlong",
    "state": "California",
    "country": "United States",
    "tz": "America/Los_Angeles",
    "type": "Military Airport",
    "stateCode": "CA",
    "countryCode": "US",
    "location": {
      "type": "Point",
      "coordinates": [
        -120.151,
        40.2664
      ]
    }
  },
  {
    "code": "AKB",
    "name": "Atka Airport",
    "city": "Atka",
    "state": "Alaska",
    "country": "United States",
    "tz": "America/Adak",
    "type": "Airports",
    "stateCode": "AK",
    "countryCode": "US",
    "location": {
      "type": "Point",
      "coordinates": [
        -174.204,
        52.2217
      ]
    }
  },
  {
    "code": "ANI",
    "name": "Aniak Airport",
    "city": "Bethel",
    "state": "Alaska",
    "country": "United States",
    "tz": "America/Anchorage",
    "type": "Airports",
    "stateCode": "AK",
    "countryCode": "US",
    "location": {
      "type": "Point",
      "coordinates": [
        -159.535,
        61.5742
      ]
    }
  },
  {
    "code": "AKI",
    "name": "Akiak Airport",
    "city": "Bethel",
    "state": "Alaska",
    "country": "United States",
    "tz": "America/Anchorage",
    "type": "Airports",
    "stateCode": "AK",
    "countryCode": "US",
    "location": {
      "type": "Point",
      "coordinates": [
        -161.218,
        60.8866
      ]
    }
  },
  {
    "code": "ALF",
    "name": "Alta Airport",
    "city": "Alta",
    "state": "Finnmark Fylke",
    "country": "Norway",
    "tz": "Europe/Oslo",
    "type": "Airports",
    "stateCode": "Finnmark",
    "countryCode": "NO",
    "location": {
      "type": "Point",
      "coordinates": [
        23.3571,
        69.9793
      ]
    }
  },
  {
    "code": "AKF",
    "name": "Kufra Airport",
    "city": "Kufrah",
    "state": "Al Kufrah",
    "country": "Libya",
    "tz": "Africa/Tripoli",
    "type": "Airports",
    "stateCode": "Kufra District",
    "countryCode": "LY",
    "location": {
      "type": "Point",
      "coordinates": [
        23.3189,
        24.1819
      ]
    }
  },
  {
    "code": "AJF",
    "name": "Al Jouf Airport",
    "city": "Sakakah",
    "state": "Al Jawf",
    "country": "Saudi Arabia",
    "tz": "Asia/Riyadh",
    "type": "Airports",
    "stateCode": "Al Jowf",
    "countryCode": "SA",
    "location": {
      "type": "Point",
      "coordinates": [
        40.1039,
        29.7897
      ]
    }
  },
  {
    "code": "AIT",
    "name": "Aitutaki Airport",
    "city": "Aitutaki",
    "state": "Aitutaki",
    "country": "Cook Islands",
    "tz": "Pacific/Rarotonga",
    "type": "Airports",
    "stateCode": "",
    "countryCode": "CK",
    "location": {
      "type": "Point",
      "coordinates": [
        -159.765,
        -18.8299
      ]
    }
  },
  {
    "code": "AHO",
    "name": "Alghero Airport",
    "city": "Alghero",
    "state": "Sardinia",
    "country": "Italy",
    "tz": "Europe/Rome",
    "type": "Airports",
    "stateCode": "Sardinia",
    "countryCode": "IT",
    "location": {
      "type": "Point",
      "coordinates": [
        8.29279,
        40.6319
      ]
    }
  },
  {
    "code": "ALG",
    "name": "Houari Boumediene Airport",
    "city": "Algiers",
    "state": "Alger",
    "country": "Algeria",
    "tz": "Africa/Algiers",
    "type": "Airports",
    "stateCode": "Algiers Province",
    "countryCode": "DZ",
    "location": {
      "type": "Point",
      "coordinates": [
        3.21935,
        36.6993
      ]
    }
  },
  {
    "code": "AGU",
    "name": "Aguascalientes Airport",
    "city": "Aguascalientes",
    "state": "Aguascalientes",
    "country": "Mexico",
    "tz": "America/Mexico_City",
    "type": "Airports",
    "stateCode": "Ags.",
    "countryCode": "MX",
    "location": {
      "type": "Point",
      "coordinates": [
        -102.317,
        21.7047
      ]
    }
  },
  {
    "code": "ALC",
    "name": "Alicante Airport",
    "city": "Elx",
    "state": "Valencia",
    "country": "Spain",
    "tz": "Europe/Madrid",
    "type": "Airports",
    "stateCode": "Valencian Community",
    "countryCode": "ES",
    "location": {
      "type": "Point",
      "coordinates": [
        -0.5576,
        38.2844
      ]
    }
  },
  {
    "code": "AJL",
    "name": "Aizwal Airport",
    "city": "Aizawl",
    "state": "Mizoram",
    "country": "India",
    "tz": "Asia/Kolkata",
    "type": "Airports",
    "stateCode": "MZ",
    "countryCode": "IN",
    "location": {
      "type": "Point",
      "coordinates": [
        92.8083,
        23.7361
      ]
    }
  },
  {
    "code": "AKX",
    "name": "Aktyubinsk Airport",
    "city": "Aqtobe",
    "state": "Aqtobe",
    "country": "Kazakhstan",
    "tz": "Asia/Aqtobe",
    "type": "Airports",
    "stateCode": "Aktobe Region",
    "countryCode": "KZ",
    "location": {
      "type": "Point",
      "coordinates": [
        57.2115,
        50.2362
      ]
    }
  },
  {
    "code": "AKY",
    "name": "Sittwe Airport",
    "city": "Sittwe",
    "state": "Rakhine State",
    "country": "Myanmar",
    "tz": "Asia/Rangoon",
    "type": "Airports",
    "stateCode": "Rakhine",
    "countryCode": "MM",
    "location": {
      "type": "Point",
      "coordinates": [
        92.8803,
        20.1303
      ]
    }
  },
  {
    "code": "ALA",
    "name": "Alma Ata Airport",
    "city": "Almaty",
    "state": "Almaty",
    "country": "Kazakhstan",
    "tz": "Asia/Almaty",
    "type": "Airports",
    "stateCode": "Almaty Province",
    "countryCode": "KZ",
    "location": {
      "type": "Point",
      "coordinates": [
        77.0319,
        43.3608
      ]
    }
  },
  {
    "code": "AJR",
    "name": "Arvidsjaur Airport",
    "city": "Arvidsjaur",
    "state": "Norrbotten",
    "country": "Sweden",
    "tz": "Europe/Stockholm",
    "type": "Airports",
    "stateCode": "Norrbotten County",
    "countryCode": "SE",
    "location": {
      "type": "Point",
      "coordinates": [
        19.2647,
        65.592
      ]
    }
  },
  {
    "code": "AJA",
    "name": "Campo Dell Oro Airport",
    "city": "Ajaccio",
    "state": "Corsica",
    "country": "France",
    "tz": "Europe/Paris",
    "type": "Airports",
    "stateCode": "Corsica",
    "countryCode": "FR",
    "location": {
      "type": "Point",
      "coordinates": [
        8.79778,
        41.9204
      ]
    }
  },
  {
    "code": "AKN",
    "name": "King Salmon Airport",
    "city": "King Salmon",
    "state": "Alaska",
    "country": "United States",
    "tz": "America/Anchorage",
    "type": "Airports",
    "stateCode": "AK",
    "countryCode": "US",
    "location": {
      "type": "Point",
      "coordinates": [
        -156.655,
        58.6775
      ]
    }
  },
  {
    "code": "ALZ",
    "name": "Alitak Seaplane Base",
    "city": "Alitak",
    "state": "Alaska",
    "country": "United States",
    "tz": "America/Anchorage",
    "type": "Sea Plane Base",
    "stateCode": "AK",
    "countryCode": "US",
    "location": {
      "type": "Point",
      "coordinates": [
        -154.246,
        56.8988
      ]
    }
  },
  {
    "code": "ALY",
    "name": "An-Nuzhah Airport",
    "city": "Alexandria",
    "state": "Al Iskandariyah",
    "country": "Egypt",
    "tz": "Africa/Cairo",
    "type": "Airports",
    "stateCode": "Alexandria Governorate",
    "countryCode": "EG",
    "location": {
      "type": "Point",
      "coordinates": [
        29.9491,
        31.1845
      ]
    },
    "macCode": "ALY"
  },
  {
    "code": "AIA",
    "name": "Alliance Municipal Airport",
    "city": "Alliance",
    "state": "Nebraska",
    "country": "United States",
    "tz": "America/Denver",
    "type": "Airports",
    "stateCode": "NE",
    "countryCode": "US",
    "location": {
      "type": "Point",
      "coordinates": [
        -102.81,
        42.0622
      ]
    }
  },
  {
    "code": "ALB",
    "name": "Albany International Airport",
    "city": "Latham",
    "state": "New York",
    "country": "United States",
    "tz": "America/New_York",
    "type": "Airports",
    "stateCode": "NY",
    "countryCode": "US",
    "location": {
      "type": "Point",
      "coordinates": [
        -73.809,
        42.7426
      ]
    }
  },
  {
    "code": "AJU",
    "name": "Santa Maria Airport",
    "city": "Aracaju",
    "state": "Sergipe",
    "country": "Brazil",
    "tz": "America/Belem",
    "type": "Airports",
    "stateCode": "SE",
    "countryCode": "BR",
    "location": {
      "type": "Point",
      "coordinates": [
        -37.0733,
        -10.985
      ]
    }
  },
  {
    "code": "ALS",
    "name": "San Luis Valley Regional Airport",
    "city": "Alamosa",
    "state": "Colorado",
    "country": "United States",
    "tz": "America/Denver",
    "type": "Airports",
    "stateCode": "CO",
    "countryCode": "US",
    "location": {
      "type": "Point",
      "coordinates": [
        -105.865,
        37.4444
      ]
    }
  },
  {
    "code": "AKJ",
    "name": "Asahikawa Airport",
    "city": "Asahikawa-shi",
    "state": "Hokkaido Prefecture",
    "country": "Japan",
    "tz": "Asia/Tokyo",
    "type": "Airports",
    "stateCode": "Hokkaido Prefecture",
    "countryCode": "JP",
    "location": {
      "type": "Point",
      "coordinates": [
        142.453,
        43.665
      ]
    }
  },
  {
    "code": "AMD",
    "name": "Sardar Vallabhbhai Patel International Airport",
    "city": "Ahmedabad",
    "state": "Gujarat",
    "country": "India",
    "tz": "Asia/Kolkata",
    "type": "Airports",
    "stateCode": "GJ",
    "countryCode": "IN",
    "location": {
      "type": "Point",
      "coordinates": [
        72.6328,
        23.0728
      ]
    }
  },
  {
    "code": "AKP",
    "name": "Anaktuvuk Pass Airport",
    "city": "Anaktuvuk Pass",
    "state": "Alaska",
    "country": "United States",
    "tz": "America/Anchorage",
    "type": "Airports",
    "stateCode": "AK",
    "countryCode": "US",
    "location": {
      "type": "Point",
      "coordinates": [
        -151.79,
        68.1916
      ]
    }
  },
  {
    "code": "ALW",
    "name": "Walla Walla Regional Airport",
    "city": "Walla Walla",
    "state": "Washington",
    "country": "United States",
    "tz": "America/Los_Angeles",
    "type": "Airports",
    "stateCode": "WA",
    "countryCode": "US",
    "location": {
      "type": "Point",
      "coordinates": [
        -118.283,
        46.0879
      ]
    }
  },
  {
    "code": "ANU",
    "name": "V C Bird International Airport",
    "city": "Carlisle",
    "state": "Saint George",
    "country": "Antigua and Barbuda",
    "tz": "America/Antigua",
    "type": "Airports",
    "stateCode": "",
    "countryCode": "AG",
    "location": {
      "type": "Point",
      "coordinates": [
        -61.79,
        17.1375
      ]
    }
  },
  {
    "code": "AMA",
    "name": "Amarillo International Airport",
    "city": "Amarillo",
    "state": "Texas",
    "country": "United States",
    "tz": "America/Chicago",
    "type": "Airports",
    "stateCode": "TX",
    "countryCode": "US",
    "location": {
      "type": "Point",
      "coordinates": [
        -101.706,
        35.2177
      ]
    }
  },
  {
    "code": "ALO",
    "name": "Waterloo Municipal Airport",
    "city": "Waterloo",
    "state": "Iowa",
    "country": "United States",
    "tz": "America/Chicago",
    "type": "Airports",
    "stateCode": "IA",
    "countryCode": "US",
    "location": {
      "type": "Point",
      "coordinates": [
        -92.3951,
        42.5509
      ]
    }
  },
  {
    "code": "ANR",
    "name": "Deurne Airport",
    "city": "Antwerp",
    "state": "Antwerp",
    "country": "Belgium",
    "tz": "Europe/Brussels",
    "type": "Airports",
    "stateCode": "Flanders",
    "countryCode": "BE",
    "location": {
      "type": "Point",
      "coordinates": [
        4.45236,
        51.1896
      ]
    }
  },
  {
    "code": "ANF",
    "name": "Cerro Moreno International Airport",
    "city": "Antofagasta",
    "state": "Antofagasta",
    "country": "Chile",
    "tz": "America/Santiago",
    "type": "Airports",
    "stateCode": "Antofagasta Region",
    "countryCode": "CL",
    "location": {
      "type": "Point",
      "coordinates": [
        -70.4419,
        -23.44
      ]
    }
  },
  {
    "code": "AMS",
    "name": "Schiphol Airport",
    "city": "Schiphol Zuid",
    "state": "North Holland",
    "country": "Netherlands",
    "tz": "Europe/Amsterdam",
    "type": "Airports",
    "stateCode": "NH",
    "countryCode": "NL",
    "location": {
      "type": "Point",
      "coordinates": [
        4.77511,
        52.3122
      ]
    }
  },
  {
    "code": "AMI",
    "name": "Selaparang",
    "city": "Mataram",
    "state": "Nusa Tenggara Barat",
    "country": "Indonesia",
    "tz": "Asia/Makassar",
    "type": "Airports",
    "stateCode": "West Nusa Tenggara",
    "countryCode": "ID",
    "location": {
      "type": "Point",
      "coordinates": [
        116.098,
        -8.562
      ]
    }
  },
  {
    "code": "AMQ",
    "name": "Pattimura Airport",
    "city": "Ambon",
    "state": "Maluku",
    "country": "Indonesia",
    "tz": "Asia/Jakarta",
    "type": "Airports",
    "stateCode": "Maluku",
    "countryCode": "ID",
    "location": {
      "type": "Point",
      "coordinates": [
        128.078,
        -3.7067
      ]
    }
  },
  {
    "code": "ANC",
    "name": "Anchorage International Airport",
    "city": "Anchorage",
    "state": "Alaska",
    "country": "United States",
    "tz": "America/Anchorage",
    "type": "Airports",
    "stateCode": "AK",
    "countryCode": "US",
    "location": {
      "type": "Point",
      "coordinates": [
        -149.961,
        61.1767
      ]
    }
  },
  {
    "code": "ANV",
    "name": "Anvik Airport",
    "city": "Anvik",
    "state": "Alaska",
    "country": "United States",
    "tz": "America/Nome",
    "type": "Airports",
    "stateCode": "AK",
    "countryCode": "US",
    "location": {
      "type": "Point",
      "coordinates": [
        -160.217,
        62.65
      ]
    }
  },
  {
    "code": "AOI",
    "name": "Falconara Airport",
    "city": "Falconara Marittima",
    "state": "Marche",
    "country": "Italy",
    "tz": "Europe/Rome",
    "type": "Airports",
    "stateCode": "Marche",
    "countryCode": "IT",
    "location": {
      "type": "Point",
      "coordinates": [
        13.3634,
        43.6158
      ]
    }
  },
  {
    "code": "AOE",
    "name": "Anadolu University Airport",
    "city": "Eskişehir",
    "state": "Eskişehir",
    "country": "Turkey",
    "tz": "Europe/Istanbul",
    "type": "Airports",
    "stateCode": "Eskişehir Province",
    "countryCode": "TR",
    "location": {
      "type": "Point",
      "coordinates": [
        30.5172,
        39.7905
      ]
    }
  },
  {
    "code": "ASW",
    "name": "Aswan Airport",
    "city": "Aswan",
    "state": "Aswan",
    "country": "Egypt",
    "tz": "Africa/Cairo",
    "type": "Airports",
    "stateCode": "Aswan Governorate",
    "countryCode": "EG",
    "location": {
      "type": "Point",
      "coordinates": [
        32.8217,
        23.965
      ]
    }
  },
  {
    "code": "ATL",
    "name": "Hartsfield-Jackson Atlanta International Airport",
    "city": "Atlanta",
    "state": "Georgia",
    "country": "United States",
    "tz": "America/New_York",
    "type": "Airports",
    "stateCode": "GA",
    "countryCode": "US",
    "location": {
      "type": "Point",
      "coordinates": [
        -84.4333,
        33.6558
      ]
    }
  },
  {
    "code": "APL",
    "name": "Nampula Airport",
    "city": "Nampula",
    "state": "Nampula",
    "country": "Mozambique",
    "tz": "Africa/Maputo",
    "type": "Airports",
    "stateCode": "Nampula Province",
    "countryCode": "MZ",
    "location": {
      "type": "Point",
      "coordinates": [
        39.2814,
        -15.1
      ]
    }
  },
  {
    "code": "AUH",
    "name": "Abu Dhabi International Airport",
    "city": "Abu Dhabi",
    "state": "Abu Dhabi",
    "country": "United Arab Emirates",
    "tz": "Asia/Dubai",
    "type": "Airports",
    "stateCode": "Abu Dhabi",
    "countryCode": "AE",
    "location": {
      "type": "Point",
      "coordinates": [
        54.6489,
        24.4331
      ]
    },
    "macCode": "AUH"
  },
  {
    "code": "ARI",
    "name": "Chacalluta Airport",
    "city": "Arica",
    "state": "Tarapaca",
    "country": "Chile",
    "tz": "America/Santiago",
    "type": "Airports",
    "stateCode": "Región de Arica y Parinacota",
    "countryCode": "CL",
    "location": {
      "type": "Point",
      "coordinates": [
        -70.3358,
        -18.3458
      ]
    }
  },
  {
    "code": "AOJ",
    "name": "Aomori Airport",
    "city": "Aomori-shi",
    "state": "Aomori Prefecture",
    "country": "Japan",
    "tz": "Asia/Tokyo",
    "type": "Airports",
    "stateCode": "Aomori Prefecture",
    "countryCode": "JP",
    "location": {
      "type": "Point",
      "coordinates": [
        140.69,
        40.7357
      ]
    }
  },
  {
    "code": "APW",
    "name": "Faleolo Airport",
    "city": "Apia",
    "state": "A`ana",
    "country": "Samoa",
    "tz": "Pacific/Apia",
    "type": "Airports",
    "stateCode": "A'ana",
    "countryCode": "WS",
    "location": {
      "type": "Point",
      "coordinates": [
        -171.993,
        -13.8255
      ]
    }
  },
  {
    "code": "APN",
    "name": "Alpena County Regional Airport",
    "city": "Alpena",
    "state": "Michigan",
    "country": "United States",
    "tz": "America/New_York",
    "type": "Airports",
    "stateCode": "MI",
    "countryCode": "US",
    "location": {
      "type": "Point",
      "coordinates": [
        -83.5683,
        45.07
      ]
    }
  },
  {
    "code": "AQJ",
    "name": "Aqaba International Airport",
    "city": "Aqaba",
    "state": "Al `Aqabah",
    "country": "Jordan",
    "tz": "Asia/Amman",
    "type": "Airports",
    "stateCode": "Aqaba Governorate",
    "countryCode": "JO",
    "location": {
      "type": "Point",
      "coordinates": [
        35.0178,
        29.6119
      ]
    }
  },
  {
    "code": "ARH",
    "name": "Arkhangelsk Airport",
    "city": "Arkhangel'sk",
    "state": "Arkhangelrskaya Oblast",
    "country": "Russia",
    "tz": "Europe/Moscow",
    "type": "Airports",
    "stateCode": "Arkhangelsk Oblast",
    "countryCode": "RU",
    "location": {
      "type": "Point",
      "coordinates": [
        40.4242,
        64.4465
      ]
    }
  },
  {
    "code": "ARN",
    "name": "Arlanda Airport",
    "city": "Märst",
    "state": "Stockholm",
    "country": "Sweden",
    "tz": "Europe/Stockholm",
    "type": "Airports",
    "stateCode": "Stockholm County",
    "countryCode": "SE",
    "location": {
      "type": "Point",
      "coordinates": [
        17.9317,
        59.6521
      ]
    },
    "macCode": "STO"
  },
  {
    "code": "AOR",
    "name": "Sultan Abdul Halim Airport",
    "city": "Kepala Batas",
    "state": "Kedah",
    "country": "Malaysia",
    "tz": "Asia/Kuala_Lumpur",
    "type": "Airports",
    "stateCode": "Kedah",
    "countryCode": "MY",
    "location": {
      "type": "Point",
      "coordinates": [
        100.404,
        6.1947
      ]
    }
  },
  {
    "code": "AQG",
    "name": "Anqing Airport",
    "city": "Anqing",
    "state": "Anhui",
    "country": "China",
    "tz": "Asia/Shanghai",
    "type": "Airports",
    "stateCode": "Anhui",
    "countryCode": "CN",
    "location": {
      "type": "Point",
      "coordinates": [
        117.033,
        30.5167
      ]
    }
  },
  {
    "code": "ASF",
    "name": "Astrakhan Southeast Airport",
    "city": "Astrakhan'",
    "state": "Astrakhanskaya Oblast",
    "country": "Russia",
    "tz": "Europe/Samara",
    "type": "Airports",
    "stateCode": "Astrakhan Oblast",
    "countryCode": "RU",
    "location": {
      "type": "Point",
      "coordinates": [
        48.0515,
        46.2971
      ]
    }
  },
  {
    "code": "AOK",
    "name": "Karpathos Airport",
    "city": "Karpathos",
    "state": "Notio Aigaio",
    "country": "Greece",
    "tz": "Europe/Athens",
    "type": "Airports",
    "stateCode": "",
    "countryCode": "GR",
    "location": {
      "type": "Point",
      "coordinates": [
        27.1472,
        35.4239
      ]
    }
  },
  {
    "code": "APO",
    "name": "Apartado Airport",
    "city": "Apartadó",
    "state": "Antioquia",
    "country": "Colombia",
    "tz": "America/Bogota",
    "type": "Airports",
    "stateCode": "Antioquia",
    "countryCode": "CO",
    "location": {
      "type": "Point",
      "coordinates": [
        -76.6321,
        7.88361
      ]
    }
  },
  {
    "code": "ARK",
    "name": "Arusha Airport",
    "city": "Arusha",
    "state": "Arusha",
    "country": "Tanzania",
    "tz": "Africa/Dar_es_Salaam",
    "type": "Airports",
    "stateCode": "Arusha Region",
    "countryCode": "TZ",
    "location": {
      "type": "Point",
      "coordinates": [
        36.6738,
        -3.36515
      ]
    }
  },
  {
    "code": "ASM",
    "name": "Yohannes Iv International Airport",
    "city": "Asmara",
    "state": "Maekel",
    "country": "Eritrea",
    "tz": "Africa/Asmara",
    "type": "Airports",
    "stateCode": "Central",
    "countryCode": "ER",
    "location": {
      "type": "Point",
      "coordinates": [
        38.9103,
        15.2906
      ]
    }
  },
  {
    "code": "ARW",
    "name": "Ceala Airport",
    "city": "Arad",
    "state": "Arad",
    "country": "Romania",
    "tz": "Europe/Bucharest",
    "type": "Airports",
    "stateCode": "AR",
    "countryCode": "RO",
    "location": {
      "type": "Point",
      "coordinates": [
        21.2609,
        46.1805
      ]
    }
  },
  {
    "code": "ASR",
    "name": "Erkilet Airport",
    "city": "Kayseri",
    "state": "Kayseri",
    "country": "Turkey",
    "tz": "Europe/Istanbul",
    "type": "Airports",
    "stateCode": "Kayseri Province",
    "countryCode": "TR",
    "location": {
      "type": "Point",
      "coordinates": [
        35.4939,
        38.7708
      ]
    }
  },
  {
    "code": "ATH",
    "name": "Eleftherios Venizelos International Airport",
    "city": "Athens",
    "state": "Attiki",
    "country": "Greece",
    "tz": "Europe/Athens",
    "type": "Airports",
    "stateCode": "",
    "countryCode": "GR",
    "location": {
      "type": "Point",
      "coordinates": [
        23.7235,
        37.8937
      ]
    }
  },
  {
    "code": "ARC",
    "name": "Arctic Village Airport",
    "city": "Arctic Village",
    "state": "Alaska",
    "country": "United States",
    "tz": "America/Anchorage",
    "type": "Airports",
    "stateCode": "AK",
    "countryCode": "US",
    "location": {
      "type": "Point",
      "coordinates": [
        -145.583,
        68.1167
      ]
    }
  },
  {
    "code": "ATY",
    "name": "Watertown Municipal Airport",
    "city": "Watertown",
    "state": "South Dakota",
    "country": "United States",
    "tz": "America/Chicago",
    "type": "Airports",
    "stateCode": "SD",
    "countryCode": "US",
    "location": {
      "type": "Point",
      "coordinates": [
        -97.1609,
        44.9216
      ]
    }
  },
  {
    "code": "ASU",
    "name": "Silvio Pettirossi International Airport",
    "city": "Colonia Mariano Roque Alonso",
    "state": "Central",
    "country": "Paraguay",
    "tz": "America/Asuncion",
    "type": "Airports",
    "stateCode": "Departamento Pdte. Hayes",
    "countryCode": "PY",
    "location": {
      "type": "Point",
      "coordinates": [
        -57.5189,
        -25.2397
      ]
    }
  },
  {
    "code": "ASB",
    "name": "Ashkhabad Northwest Airport",
    "city": "Ashgabat",
    "state": "Ashkhabad",
    "country": "Turkmenistan",
    "tz": "Asia/Ashgabat",
    "type": "Airports",
    "stateCode": "Ashgabat",
    "countryCode": "TM",
    "location": {
      "type": "Point",
      "coordinates": [
        58.3294,
        37.9842
      ]
    }
  },
  {
    "code": "ATT",
    "name": "Atmautluak Airport",
    "city": "Atmautluak",
    "state": "Alaska",
    "country": "United States",
    "tz": "America/Anchorage",
    "type": "Airports",
    "stateCode": "AK",
    "countryCode": "US",
    "location": {
      "type": "Point",
      "coordinates": [
        -162.276,
        60.865
      ]
    }
  },
  {
    "code": "AQP",
    "name": "Rodriguez Ballon Airport",
    "city": "Arequipa",
    "state": "Arequipa",
    "country": "Peru",
    "tz": "America/Lima",
    "type": "Airports",
    "stateCode": "Arequipa",
    "countryCode": "PE",
    "location": {
      "type": "Point",
      "coordinates": [
        -71.5692,
        -16.3372
      ]
    }
  },
  {
    "code": "ASJ",
    "name": "Amami Airport",
    "city": "Amami O Shima",
    "state": "Mie Prefecture",
    "country": "Japan",
    "tz": "Asia/Tokyo",
    "type": "Airports",
    "stateCode": "Kagoshima Prefecture",
    "countryCode": "JP",
    "location": {
      "type": "Point",
      "coordinates": [
        129.712,
        28.431
      ]
    }
  },
  {
    "code": "ASP",
    "name": "Alice Springs Airport",
    "city": "Alice Springs",
    "state": "Northern Territory",
    "country": "Australia",
    "tz": "Australia/Darwin",
    "type": "Airports",
    "stateCode": "NT",
    "countryCode": "AU",
    "location": {
      "type": "Point",
      "coordinates": [
        133.892,
        -23.802
      ]
    }
  },
  {
    "code": "ASE",
    "name": "Aspen Pitkin County Airport-Sardy Field",
    "city": "Aspen",
    "state": "Colorado",
    "country": "United States",
    "tz": "America/Denver",
    "type": "Airports",
    "stateCode": "CO",
    "countryCode": "US",
    "location": {
      "type": "Point",
      "coordinates": [
        -106.864,
        39.2197
      ]
    }
  },
  {
    "code": "ATQ",
    "name": "Raja Sansi Airport",
    "city": "Raja Sansi",
    "state": "Punjab",
    "country": "India",
    "tz": "Asia/Kolkata",
    "type": "Airports",
    "stateCode": "PB",
    "countryCode": "IN",
    "location": {
      "type": "Point",
      "coordinates": [
        74.7955,
        31.7131
      ]
    }
  },
  {
    "code": "AUA",
    "name": "Reina Beatrix International Airport",
    "city": "Aruba",
    "state": "",
    "country": "Aruba",
    "tz": "America/Aruba",
    "type": "Airports",
    "stateCode": "",
    "countryCode": "Aruba",
    "location": {
      "type": "Point",
      "coordinates": [
        -70.0139,
        12.5022
      ]
    }
  },
  {
    "code": "ATW",
    "name": "Outagamie County Airport",
    "city": "Appleton",
    "state": "Wisconsin",
    "country": "United States",
    "tz": "America/Chicago",
    "type": "Airports",
    "stateCode": "WI",
    "countryCode": "US",
    "location": {
      "type": "Point",
      "coordinates": [
        -88.5111,
        44.2603
      ]
    }
  },
  {
    "code": "ATZ",
    "name": "Asyut Airport",
    "city": "Asyut",
    "state": "Asyut",
    "country": "Egypt",
    "tz": "Africa/Cairo",
    "type": "Airports",
    "stateCode": "Assiut Governorate",
    "countryCode": "EG",
    "location": {
      "type": "Point",
      "coordinates": [
        31.0114,
        27.0411
      ]
    }
  },
  {
    "code": "AUK",
    "name": "Alakanuk Airport",
    "city": "Alakanuk",
    "state": "Alaska",
    "country": "United States",
    "tz": "America/Anchorage",
    "type": "Airports",
    "stateCode": "AK",
    "countryCode": "US",
    "location": {
      "type": "Point",
      "coordinates": [
        -164.633,
        62.6833
      ]
    }
  },
  {
    "code": "AUC",
    "name": "Santiago Perez Airport",
    "city": "Arauca",
    "state": "Caldas",
    "country": "Colombia",
    "tz": "America/Bogota",
    "type": "Airports",
    "stateCode": "Caldas",
    "countryCode": "CO",
    "location": {
      "type": "Point",
      "coordinates": [
        -70.7406,
        7.0703
      ]
    }
  },
  {
    "code": "AUX",
    "name": "Araguaina Airport",
    "city": "Araguaina",
    "state": "Norte",
    "country": "Brazil",
    "tz": "America/Araguaina",
    "type": "Airports",
    "stateCode": "TO",
    "countryCode": "BR",
    "location": {
      "type": "Point",
      "coordinates": [
        -48.2403,
        -7.2281
      ]
    }
  },
  {
    "code": "AUS",
    "name": "Austin-Bergstrom International Airport",
    "city": "Austin",
    "state": "Texas",
    "country": "United States",
    "tz": "America/Chicago",
    "type": "Airports",
    "stateCode": "TX",
    "countryCode": "US",
    "location": {
      "type": "Point",
      "coordinates": [
        -97.6653,
        30.2027
      ]
    }
  },
  {
    "code": "AVL",
    "name": "Asheville Regional Airport",
    "city": "Fletcher",
    "state": "North Carolina",
    "country": "United States",
    "tz": "America/New_York",
    "type": "Airports",
    "stateCode": "NC",
    "countryCode": "US",
    "location": {
      "type": "Point",
      "coordinates": [
        -82.5373,
        35.4349
      ]
    }
  },
  {
    "code": "AVN",
    "name": "Avignon-Caumont Airport",
    "city": "Avignon",
    "state": "Provence-alpes-cote d'Azur",
    "country": "France",
    "tz": "Europe/Paris",
    "type": "Airports",
    "stateCode": "Provence-Alpes-Côte d'Azur",
    "countryCode": "FR",
    "location": {
      "type": "Point",
      "coordinates": [
        4.89951,
        43.9056
      ]
    }
  },
  {
    "code": "AVV",
    "name": "Avalon Airport",
    "city": "Lara",
    "state": "Victoria",
    "country": "Australia",
    "tz": "Australia/Melbourne",
    "type": "Other Airport",
    "stateCode": "VIC",
    "countryCode": "AU",
    "location": {
      "type": "Point",
      "coordinates": [
        144.468,
        -38.0408
      ]
    },
    "macCode": "MEL"
  },
  {
    "code": "AVP",
    "name": "Wilkes Barre Scranton International Airport",
    "city": "Pittston",
    "state": "Pennsylvania",
    "country": "United States",
    "tz": "America/New_York",
    "type": "Airports",
    "stateCode": "PA",
    "countryCode": "US",
    "location": {
      "type": "Point",
      "coordinates": [
        -75.7294,
        41.3354
      ]
    }
  },
  {
    "code": "AXD",
    "name": "Alexandroupolis Airport",
    "city": "Alexandroupolis",
    "state": "Anatoliki Makedonia",
    "country": "Greece",
    "tz": "Europe/Athens",
    "type": "Airports",
    "stateCode": "",
    "countryCode": "GR",
    "location": {
      "type": "Point",
      "coordinates": [
        25.9567,
        40.8567
      ]
    }
  },
  {
    "code": "AWZ",
    "name": "Ahvaz Airport",
    "city": "Ahvaz",
    "state": "Khuzestan",
    "country": "Iran",
    "tz": "Asia/Tehran",
    "type": "Airports",
    "stateCode": "Khuzestan Province",
    "countryCode": "IR",
    "location": {
      "type": "Point",
      "coordinates": [
        48.7597,
        31.3378
      ]
    }
  },
  {
    "code": "AXM",
    "name": "El Eden Airport",
    "city": "La Tebaida",
    "state": "Quindio",
    "country": "Colombia",
    "tz": "America/Bogota",
    "type": "Airports",
    "stateCode": "Quindio",
    "countryCode": "CO",
    "location": {
      "type": "Point",
      "coordinates": [
        -75.7681,
        4.4564
      ]
    }
  },
  {
    "code": "AXA",
    "name": "Wallblake Airport",
    "city": "Anguilla",
    "state": "The Valley",
    "country": "Anguilla",
    "tz": "America/Anguilla",
    "type": "Airports",
    "stateCode": "",
    "countryCode": "AI",
    "location": {
      "type": "Point",
      "coordinates": [
        -63.0575,
        18.2103
      ]
    }
  },
  {
    "code": "BCM",
    "name": "Luizi Calugara Airport",
    "city": "Bacæu",
    "state": "Bacau",
    "country": "Romania",
    "tz": "Europe/Bucharest",
    "type": "Airports",
    "stateCode": "",
    "countryCode": "",
    "location": {
      "type": "Point",
      "coordinates": [
        26.8997,
        46.5283
      ]
    }
  },
  {
    "code": "AXT",
    "name": "Akita Airport",
    "city": "Akita-shi",
    "state": "Akita Prefecture",
    "country": "Japan",
    "tz": "Asia/Tokyo",
    "type": "Airports",
    "stateCode": "Akita Prefecture",
    "countryCode": "JP",
    "location": {
      "type": "Point",
      "coordinates": [
        140.219,
        39.6153
      ]
    }
  },
  {
    "code": "BET",
    "name": "Bethel Airport",
    "city": "Bethel",
    "state": "Alaska",
    "country": "United States",
    "tz": "America/Nome",
    "type": "Airports",
    "stateCode": "AK",
    "countryCode": "US",
    "location": {
      "type": "Point",
      "coordinates": [
        -161.847,
        60.7788
      ]
    }
  },
  {
    "code": "AYQ",
    "name": "Ayers Rock Airport",
    "city": "Ayers Rock",
    "state": "Northern Territory",
    "country": "Australia",
    "tz": "Australia/Darwin",
    "type": "Airports",
    "stateCode": "NT",
    "countryCode": "AU",
    "location": {
      "type": "Point",
      "coordinates": [
        130.977,
        -25.1872
      ]
    }
  },
  {
    "code": "BAX",
    "name": "Barnaui West Airport",
    "city": "Barnaul",
    "state": "Altayskiy Kray",
    "country": "Russia",
    "tz": "Asia/Krasnoyarsk",
    "type": "Airports",
    "stateCode": "Altai Krai",
    "countryCode": "RU",
    "location": {
      "type": "Point",
      "coordinates": [
        83.75,
        53.3667
      ]
    }
  },
  {
    "code": "BAV",
    "name": "Baotou Airport",
    "city": "Baotou",
    "state": "Nei Mongol",
    "country": "China",
    "tz": "Asia/Shanghai",
    "type": "Airports",
    "stateCode": "Inner Mongolia",
    "countryCode": "CN",
    "location": {
      "type": "Point",
      "coordinates": [
        109.998,
        40.5679
      ]
    }
  },
  {
    "code": "BAH",
    "name": "Bahrain International Airport",
    "city": "Al Muharraq",
    "state": "Al Manamah",
    "country": "Bahrain",
    "tz": "Asia/Bahrain",
    "type": "Airports",
    "stateCode": "Capital Governorate",
    "countryCode": "BH",
    "location": {
      "type": "Point",
      "coordinates": [
        50.6234,
        26.2736
      ]
    }
  },
  {
    "code": "BCD",
    "name": "Bacolod Airport",
    "city": "Bacolod City",
    "state": "Western Visayas",
    "country": "Philippines",
    "tz": "Asia/Manila",
    "type": "Airports",
    "stateCode": "Western Visayas",
    "countryCode": "PH",
    "location": {
      "type": "Point",
      "coordinates": [
        122.929,
        10.6444
      ]
    }
  },
  {
    "code": "AZS",
    "name": "Samana El Catey International Airport",
    "city": "Samana",
    "state": "Samana",
    "country": "Dominican Republic",
    "tz": "America/Santo_Domingo",
    "type": "Airports",
    "stateCode": "Samaná Province",
    "countryCode": "DO",
    "location": {
      "type": "Point",
      "coordinates": [
        -69.3279,
        19.2099
      ]
    }
  },
  {
    "code": "AZO",
    "name": "Kalamazoo-Battle Creek International Airport",
    "city": "Kalamazoo",
    "state": "Michigan",
    "country": "United States",
    "tz": "America/New_York",
    "type": "Airports",
    "stateCode": "MI",
    "countryCode": "US",
    "location": {
      "type": "Point",
      "coordinates": [
        -85.5563,
        42.2398
      ]
    }
  },
  {
    "code": "AZN",
    "name": "Andizhan Airport",
    "city": "Andijon",
    "state": "Andijon",
    "country": "Uzbekistan",
    "tz": "Asia/Tashkent",
    "type": "Airports",
    "stateCode": "Andijan Province",
    "countryCode": "UZ",
    "location": {
      "type": "Point",
      "coordinates": [
        72.2931,
        40.7324
      ]
    }
  },
  {
    "code": "BCN",
    "name": "Barcelona International Airport",
    "city": "El Prat de Llobregat",
    "state": "Catalonia",
    "country": "Spain",
    "tz": "Europe/Madrid",
    "type": "Airports",
    "stateCode": "CT",
    "countryCode": "ES",
    "location": {
      "type": "Point",
      "coordinates": [
        2.07976,
        41.3006
      ]
    }
  },
  {
    "code": "AZA",
    "name": "Phoenix-Mesa Gateway Airport",
    "city": "Phoenix",
    "state": "Arizona",
    "country": "United States",
    "tz": "America/Phoenix",
    "type": "Airports",
    "stateCode": "AZ",
    "countryCode": "US",
    "location": {
      "type": "Point",
      "coordinates": [
        -111.656,
        33.3078
      ]
    }
  },
  {
    "code": "BAY",
    "name": "Baia Mare",
    "city": "Baia Mare",
    "state": "",
    "country": "Romania",
    "tz": "Europe/Bucharest",
    "type": "Airports",
    "stateCode": "MM",
    "countryCode": "RO",
    "location": {
      "type": "Point",
      "coordinates": [
        23.465,
        47.6589
      ]
    }
  },
  {
    "code": "AYT",
    "name": "Antalya Airport",
    "city": "Antalya",
    "state": "Antalya",
    "country": "Turkey",
    "tz": "Europe/Istanbul",
    "type": "Airports",
    "stateCode": "Antalya",
    "countryCode": "TR",
    "location": {
      "type": "Point",
      "coordinates": [
        30.7917,
        36.9022
      ]
    }
  },
  {
    "code": "BDA",
    "name": "Bermuda International Airport",
    "city": "St. George",
    "state": "Pembroke",
    "country": "Bermuda",
    "tz": "Atlantic/Bermuda",
    "type": "Airports",
    "stateCode": "",
    "countryCode": "",
    "location": {
      "type": "Point",
      "coordinates": [
        -64.6903,
        32.3675
      ]
    }
  },
  {
    "code": "BCL",
    "name": "Barra Colorado Airport",
    "city": "Colorado",
    "state": "Limon",
    "country": "Costa Rica",
    "tz": "America/Costa_Rica",
    "type": "Airports",
    "stateCode": "Provincia de Limón",
    "countryCode": "CR",
    "location": {
      "type": "Point",
      "coordinates": [
        -83.5966,
        10.7856
      ]
    }
  },
  {
    "code": "AZD",
    "name": "Yazd Airport",
    "city": "Yezd",
    "state": "Yazd",
    "country": "Iran",
    "tz": "Asia/Tehran",
    "type": "Airports",
    "stateCode": "Yazd Province",
    "countryCode": "IR",
    "location": {
      "type": "Point",
      "coordinates": [
        54.2786,
        31.905
      ]
    }
  },
  {
    "code": "BAQ",
    "name": "Ernesto Cortissoz Airport",
    "city": "Soledad",
    "state": "Atlantico",
    "country": "Colombia",
    "tz": "America/Bogota",
    "type": "Airports",
    "stateCode": "Atlantico",
    "countryCode": "CO",
    "location": {
      "type": "Point",
      "coordinates": [
        -74.7789,
        10.8961
      ]
    }
  },
  {
    "code": "BBA",
    "name": "Balmaceda Airport",
    "city": "Balmaceda",
    "state": "Aisen del General Carlos Ibanez ",
    "country": "Chile",
    "tz": "America/Santiago",
    "type": "Airports",
    "stateCode": "XI Región",
    "countryCode": "CL",
    "location": {
      "type": "Point",
      "coordinates": [
        -71.6869,
        -45.9167
      ]
    }
  },
  {
    "code": "BEB",
    "name": "Benbecula Airport",
    "city": "Balivanich",
    "state": "Scotland",
    "country": "United Kingdom",
    "tz": "Europe/London",
    "type": "Airports",
    "stateCode": "Scotland",
    "countryCode": "GB",
    "location": {
      "type": "Point",
      "coordinates": [
        -7.37041,
        57.4756
      ]
    }
  },
  {
    "code": "BBU",
    "name": "Aeroportul National Bucuresti-Baneasa",
    "city": "Bucharest",
    "state": "Bucuresti",
    "country": "Romania",
    "tz": "Europe/Bucharest",
    "type": "Airports",
    "stateCode": "Bucharest",
    "countryCode": "RO",
    "location": {
      "type": "Point",
      "coordinates": [
        26.087,
        44.4966
      ]
    },
    "macCode": "BUH"
  },
  {
    "code": "BDO",
    "name": "Husein Sastranegara Airport",
    "city": "Bandung",
    "state": "Jawa Barat",
    "country": "Indonesia",
    "tz": "Asia/Jakarta",
    "type": "Airports",
    "stateCode": "West Java",
    "countryCode": "ID",
    "location": {
      "type": "Point",
      "coordinates": [
        107.576,
        -6.9017
      ]
    }
  },
  {
    "code": "BBI",
    "name": "Bhubaneswar Airport",
    "city": "Bhubaneswar",
    "state": "Orissa",
    "country": "India",
    "tz": "Asia/Kolkata",
    "type": "Airports",
    "stateCode": "OD",
    "countryCode": "IN",
    "location": {
      "type": "Point",
      "coordinates": [
        85.8152,
        20.2466
      ]
    }
  },
  {
    "code": "BDS",
    "name": "Casale Airport",
    "city": "Brindisi",
    "state": "Puglia",
    "country": "Italy",
    "tz": "Europe/Rome",
    "type": "Airports",
    "stateCode": "Apulia",
    "countryCode": "IT",
    "location": {
      "type": "Point",
      "coordinates": [
        17.9426,
        40.6626
      ]
    }
  },
  {
    "code": "BEW",
    "name": "Beira Airport",
    "city": "Beira",
    "state": "Sofala",
    "country": "Mozambique",
    "tz": "Africa/Maputo",
    "type": "Airports",
    "stateCode": "Sofala Province",
    "countryCode": "MZ",
    "location": {
      "type": "Point",
      "coordinates": [
        34.9089,
        -19.7958
      ]
    }
  },
  {
    "code": "BDL",
    "name": "Bradley International Airport",
    "city": "Windsor Locks",
    "state": "Connecticut",
    "country": "United States",
    "tz": "America/New_York",
    "type": "Airports",
    "stateCode": "CT",
    "countryCode": "US",
    "location": {
      "type": "Point",
      "coordinates": [
        -72.6816,
        41.9271
      ]
    },
    "macCode": "HFD"
  },
  {
    "code": "BEN",
    "name": "Benina Intl",
    "city": "Benghazi",
    "state": "Banghazi",
    "country": "Libya",
    "tz": "Africa/Tripoli",
    "type": "Airports",
    "stateCode": "Benghazi district",
    "countryCode": "LY",
    "location": {
      "type": "Point",
      "coordinates": [
        -87.1192,
        35.6425
      ]
    }
  },
  {
    "code": "BEL",
    "name": "Val de Caes International Airport",
    "city": "Belem",
    "state": "Para",
    "country": "Brazil",
    "tz": "America/Belem",
    "type": "Airports",
    "stateCode": "PA",
    "countryCode": "BR",
    "location": {
      "type": "Point",
      "coordinates": [
        -48.4783,
        -1.3844
      ]
    }
  },
  {
    "code": "BDJ",
    "name": "Syamsuddin Noor Airport",
    "city": "Banjarmasin",
    "state": "Kalimantan Selatan",
    "country": "Indonesia",
    "tz": "Asia/Jakarta",
    "type": "Airports",
    "stateCode": "South Kalimantan",
    "countryCode": "ID",
    "location": {
      "type": "Point",
      "coordinates": [
        114.757,
        -3.4425
      ]
    }
  },
  {
    "code": "BEY",
    "name": "Beirut International Airport",
    "city": "Beirut",
    "state": "Jabal Lubnan",
    "country": "Lebanon",
    "tz": "Asia/Beirut",
    "type": "Airports",
    "stateCode": "Mount Lebanon Governorate",
    "countryCode": "LB",
    "location": {
      "type": "Point",
      "coordinates": [
        35.4925,
        33.825
      ]
    }
  },
  {
    "code": "BES",
    "name": "Guipavas Airport",
    "city": "Guipavas",
    "state": "Brittany",
    "country": "France",
    "tz": "Europe/Paris",
    "type": "Airports",
    "stateCode": "Brittany",
    "countryCode": "FR",
    "location": {
      "type": "Point",
      "coordinates": [
        -4.41511,
        48.4458
      ]
    }
  },
  {
    "code": "BFD",
    "name": "Bradford Regional Airport",
    "city": "Lewis Run",
    "state": "Pennsylvania",
    "country": "United States",
    "tz": "America/New_York",
    "type": "Airports",
    "stateCode": "PA",
    "countryCode": "US",
    "location": {
      "type": "Point",
      "coordinates": [
        -78.6407,
        41.7964
      ]
    }
  },
  {
    "code": "BFL",
    "name": "Kern County-Meadows Field Airport",
    "city": "Bakersfield",
    "state": "California",
    "country": "United States",
    "tz": "America/Los_Angeles",
    "type": "Airports",
    "stateCode": "CA",
    "countryCode": "US",
    "location": {
      "type": "Point",
      "coordinates": [
        -119.044,
        35.4288
      ]
    }
  },
  {
    "code": "BDQ",
    "name": "Vadodara Airport",
    "city": "Vadodara",
    "state": "Gujarat",
    "country": "India",
    "tz": "Asia/Kolkata",
    "type": "Airports",
    "stateCode": "GJ",
    "countryCode": "IN",
    "location": {
      "type": "Point",
      "coordinates": [
        73.2264,
        22.3367
      ]
    }
  },
  {
    "code": "BEG",
    "name": "Surcin Airport",
    "city": "Surčin",
    "state": "Beograd",
    "country": "Serbia",
    "tz": "Europe/Belgrade",
    "type": "Airports",
    "stateCode": "Vojvodina",
    "countryCode": "RS",
    "location": {
      "type": "Point",
      "coordinates": [
        20.3122,
        44.8192
      ]
    }
  },
  {
    "code": "BFF",
    "name": "William B Heilig Field Airport",
    "city": "Scottsbluff",
    "state": "Nebraska",
    "country": "United States",
    "tz": "America/Denver",
    "type": "Airports",
    "stateCode": "NE",
    "countryCode": "US",
    "location": {
      "type": "Point",
      "coordinates": [
        -103.597,
        41.8683
      ]
    }
  },
  {
    "code": "BFS",
    "name": "Aldergrove Airport",
    "city": "Crumlin",
    "state": "Northern Ireland",
    "country": "United Kingdom",
    "tz": "Europe/London",
    "type": "Airports",
    "stateCode": "Northern Ireland",
    "countryCode": "GB",
    "location": {
      "type": "Point",
      "coordinates": [
        -6.225,
        54.6542
      ]
    },
    "macCode": "BFS"
  },
  {
    "code": "BFN",
    "name": "J B M Hertzog Airport",
    "city": "Bloemfontein",
    "state": "Free State",
    "country": "South Africa",
    "tz": "Africa/Johannesburg",
    "type": "Airports",
    "stateCode": "FS",
    "countryCode": "ZA",
    "location": {
      "type": "Point",
      "coordinates": [
        26.3027,
        -29.0942
      ]
    }
  },
  {
    "code": "BGF",
    "name": "Bangui M Poko Airport",
    "city": "Bangui",
    "state": "Bangui",
    "country": "Central African Republic",
    "tz": "Africa/Bangui",
    "type": "Airports",
    "stateCode": "Bangui",
    "countryCode": "CF",
    "location": {
      "type": "Point",
      "coordinates": [
        18.5203,
        4.3961
      ]
    }
  },
  {
    "code": "BGA",
    "name": "Palonegro Airport",
    "city": "Bucaramanga",
    "state": "Santander",
    "country": "Colombia",
    "tz": "America/Bogota",
    "type": "Airports",
    "stateCode": "Santander",
    "countryCode": "CO",
    "location": {
      "type": "Point",
      "coordinates": [
        -73.1883,
        7.1217
      ]
    }
  },
  {
    "code": "BGI",
    "name": "Grantley Adams International Airport",
    "city": "Bridgetown",
    "state": "Christ Church",
    "country": "Barbados",
    "tz": "America/Barbados",
    "type": "Airports",
    "stateCode": "Saint Michael",
    "countryCode": "BB",
    "location": {
      "type": "Point",
      "coordinates": [
        -59.4939,
        13.0719
      ]
    }
  },
  {
    "code": "BGY",
    "name": "Orio Al Serio Airport",
    "city": "Grassobbio",
    "state": "Lombardy",
    "country": "Italy",
    "tz": "Europe/Rome",
    "type": "Airports",
    "stateCode": "Lombardy",
    "countryCode": "IT",
    "location": {
      "type": "Point",
      "coordinates": [
        9.699,
        45.6664
      ]
    },
    "macCode": "MIL"
  },
  {
    "code": "BGR",
    "name": "Bangor International Airport",
    "city": "Bangor",
    "state": "Maine",
    "country": "United States",
    "tz": "America/New_York",
    "type": "Airports",
    "stateCode": "ME",
    "countryCode": "US",
    "location": {
      "type": "Point",
      "coordinates": [
        -68.8167,
        44.8086
      ]
    }
  },
  {
    "code": "BGO",
    "name": "Bergen Flesland Airport",
    "city": "Blomsterdalen",
    "state": "Hordaland Fylke",
    "country": "Norway",
    "tz": "Europe/Oslo",
    "type": "Airports",
    "stateCode": "Hordaland",
    "countryCode": "NO",
    "location": {
      "type": "Point",
      "coordinates": [
        5.22065,
        60.2907
      ]
    }
  },
  {
    "code": "BGM",
    "name": "Greater Binghamton Edwin A Link Field Airport",
    "city": "Johnson City",
    "state": "New York",
    "country": "United States",
    "tz": "America/New_York",
    "type": "Airports",
    "stateCode": "NY",
    "countryCode": "US",
    "location": {
      "type": "Point",
      "coordinates": [
        -75.9825,
        42.2082
      ]
    }
  },
  {
    "code": "BGW",
    "name": "Al Muthana Airport",
    "city": "Baghdad",
    "state": "Baghdad",
    "country": "Iraq",
    "tz": "Asia/Baghdad",
    "type": "Other Airport",
    "stateCode": "Baghdad Governorate",
    "countryCode": "IQ",
    "location": {
      "type": "Point",
      "coordinates": [
        44.3639,
        33.3328
      ]
    }
  },
  {
    "code": "BIK",
    "name": "Frans Kaisiepo Airport",
    "city": "Biak",
    "state": "Irian Jaya",
    "country": "Indonesia",
    "tz": "Asia/Jakarta",
    "type": "Airports",
    "stateCode": "Papua",
    "countryCode": "ID",
    "location": {
      "type": "Point",
      "coordinates": [
        136.117,
        -1
      ]
    }
  },
  {
    "code": "BHK",
    "name": "Bukhara Airport",
    "city": "Bukhara",
    "state": "Bukhoro",
    "country": "Uzbekistan",
    "tz": "Asia/Samarkand",
    "type": "Airports",
    "stateCode": "Bukhara Province",
    "countryCode": "UZ",
    "location": {
      "type": "Point",
      "coordinates": [
        64.4895,
        39.7948
      ]
    }
  },
  {
    "code": "BHJ",
    "name": "Bhuj Airport",
    "city": "Bhuj",
    "state": "Gujarat",
    "country": "India",
    "tz": "Asia/Kolkata",
    "type": "Airports",
    "stateCode": "GJ",
    "countryCode": "IN",
    "location": {
      "type": "Point",
      "coordinates": [
        69.6706,
        23.2875
      ]
    }
  },
  {
    "code": "BHD",
    "name": "George Best Belfast City Airport",
    "city": "Belfast",
    "state": "Northern Ireland",
    "country": "United Kingdom",
    "tz": "Europe/London",
    "type": "Airports",
    "stateCode": "Northern Ireland",
    "countryCode": "GB",
    "location": {
      "type": "Point",
      "coordinates": [
        -5.87096,
        54.6151
      ]
    },
    "macCode": "BFS"
  },
  {
    "code": "BIM",
    "name": "South Bimini Airport",
    "city": "Bailey's Town",
    "state": "Bimini",
    "country": "Bahamas",
    "tz": "America/Nassau",
    "type": "Other Airport",
    "stateCode": "Bimini",
    "countryCode": "BS",
    "location": {
      "type": "Point",
      "coordinates": [
        -79.2636,
        25.6994
      ]
    }
  },
  {
    "code": "BHU",
    "name": "Bhavnagar Airport",
    "city": "Bhavnagar",
    "state": "Gujarat",
    "country": "India",
    "tz": "Asia/Kolkata",
    "type": "Airports",
    "stateCode": "GJ",
    "countryCode": "IN",
    "location": {
      "type": "Point",
      "coordinates": [
        72.1867,
        21.7536
      ]
    }
  },
  {
    "code": "BHM",
    "name": "Birmingham International Airport",
    "city": "Birmingham",
    "state": "Alabama",
    "country": "United States",
    "tz": "America/Chicago",
    "type": "Airports",
    "stateCode": "AL",
    "countryCode": "US",
    "location": {
      "type": "Point",
      "coordinates": [
        -86.7492,
        33.5604
      ]
    }
  },
  {
    "code": "BHO",
    "name": "Bairagarh Airport",
    "city": "Bhopal",
    "state": "Madhya Pradesh",
    "country": "India",
    "tz": "Asia/Kolkata",
    "type": "Airports",
    "stateCode": "MP",
    "countryCode": "IN",
    "location": {
      "type": "Point",
      "coordinates": [
        77.3383,
        23.2844
      ]
    }
  },
  {
    "code": "BIQ",
    "name": "Anglet Airport",
    "city": "Anglet",
    "state": "Aquitaine",
    "country": "France",
    "tz": "Europe/Paris",
    "type": "Airports",
    "stateCode": "Nouvelle-Aquitaine",
    "countryCode": "FR",
    "location": {
      "type": "Point",
      "coordinates": [
        -1.53137,
        43.472
      ]
    }
  },
  {
    "code": "BJL",
    "name": "Yundum International Airport",
    "city": "Yundum",
    "state": "Western",
    "country": "Gambia",
    "tz": "Africa/Banjul",
    "type": "Airports",
    "stateCode": "West Coast Region",
    "countryCode": "GM",
    "location": {
      "type": "Point",
      "coordinates": [
        -16.6544,
        13.3372
      ]
    }
  },
  {
    "code": "BIO",
    "name": "Bilbao Airport",
    "city": "Loiu",
    "state": "Basque Country",
    "country": "Spain",
    "tz": "Europe/Madrid",
    "type": "Airports",
    "stateCode": "PV",
    "countryCode": "ES",
    "location": {
      "type": "Point",
      "coordinates": [
        -2.91112,
        43.3025
      ]
    }
  },
  {
    "code": "BIA",
    "name": "Poretta Airport",
    "city": "Borgo",
    "state": "Corsica",
    "country": "France",
    "tz": "Europe/Paris",
    "type": "Airports",
    "stateCode": "Corsica",
    "countryCode": "FR",
    "location": {
      "type": "Point",
      "coordinates": [
        9.48341,
        42.5497
      ]
    }
  },
  {
    "code": "BHX",
    "name": "Birmingham International Airport",
    "city": "Birmingham",
    "state": "England",
    "country": "United Kingdom",
    "tz": "Europe/London",
    "type": "Airports",
    "stateCode": "England",
    "countryCode": "GB",
    "location": {
      "type": "Point",
      "coordinates": [
        -1.73847,
        52.4531
      ]
    }
  },
  {
    "code": "BJF",
    "name": "Batsfjord Airport",
    "city": "Baasfjord",
    "state": "Finnmark Fylke",
    "country": "Norway",
    "tz": "Europe/Oslo",
    "type": "Airports",
    "stateCode": "Finnmark",
    "countryCode": "NO",
    "location": {
      "type": "Point",
      "coordinates": [
        29.6948,
        70.6031
      ]
    }
  },
  {
    "code": "BKO",
    "name": "Bamako Senou Airport",
    "city": "Kalaban",
    "state": "Bamako",
    "country": "Mali",
    "tz": "Africa/Bamako",
    "type": "Airports",
    "stateCode": "Bamako Capital District",
    "countryCode": "ML",
    "location": {
      "type": "Point",
      "coordinates": [
        -7.9486,
        12.5361
      ]
    }
  },
  {
    "code": "ADL",
    "name": "Adelaide International Airport",
    "city": "Adelaide",
    "state": "South Australia",
    "country": "Australia",
    "tz": "Australia/Adelaide",
    "type": "Airports",
    "stateCode": "SA",
    "countryCode": "AU",
    "location": {
      "type": "Point",
      "coordinates": [
        138.529,
        -34.9464
      ]
    }
  },
  {
    "code": "BLA",
    "name": "Jose Antonio Anzoategui Airport",
    "city": "Pariaguán",
    "state": "Anzoategui",
    "country": "Venezuela",
    "tz": "America/Caracas",
    "type": "Airports",
    "stateCode": "Anzoátegui",
    "countryCode": "VE",
    "location": {
      "type": "Point",
      "coordinates": [
        -64.6872,
        10.1103
      ]
    }
  },
  {
    "code": "BJX",
    "name": "Silao Airport",
    "city": "Silao",
    "state": "Guanajuato",
    "country": "Mexico",
    "tz": "America/Mexico_City",
    "type": "Airports",
    "stateCode": "Gto.",
    "countryCode": "MX",
    "location": {
      "type": "Point",
      "coordinates": [
        -101.478,
        20.9903
      ]
    }
  },
  {
    "code": "BJV",
    "name": "Milas Airport",
    "city": "Bodrum",
    "state": "Muğla",
    "country": "Turkey",
    "tz": "Europe/Istanbul",
    "type": "Airports",
    "stateCode": "Muğla Province",
    "countryCode": "TR",
    "location": {
      "type": "Point",
      "coordinates": [
        27.4362,
        37.0413
      ]
    },
    "macCode": "BXN"
  },
  {
    "code": "BJZ",
    "name": "Talavera la Real Airport",
    "city": "Badajoz",
    "state": "Extremadura",
    "country": "Spain",
    "tz": "Europe/Madrid",
    "type": "Airports",
    "stateCode": "EX",
    "countryCode": "ES",
    "location": {
      "type": "Point",
      "coordinates": [
        -6.81921,
        38.8939
      ]
    }
  },
  {
    "code": "BHY",
    "name": "Beihai",
    "city": "Beihai",
    "state": "Guangxi",
    "country": "China",
    "tz": "Asia/Shanghai",
    "type": "Airports",
    "stateCode": "Guangxi",
    "countryCode": "CN",
    "location": {
      "type": "Point",
      "coordinates": [
        109.083,
        21.4833
      ]
    }
  },
  {
    "code": "BKI",
    "name": "Kota Kinabalu Airport",
    "city": "Kota Kinabalu",
    "state": "Sabah",
    "country": "Malaysia",
    "tz": "Asia/Kuala_Lumpur",
    "type": "Airports",
    "stateCode": "Sabah",
    "countryCode": "MY",
    "location": {
      "type": "Point",
      "coordinates": [
        116.049,
        5.9386
      ]
    }
  },
  {
    "code": "BKC",
    "name": "Buckland Airport",
    "city": "Buckland",
    "state": "Alaska",
    "country": "United States",
    "tz": "America/Nome",
    "type": "Airports",
    "stateCode": "AK",
    "countryCode": "US",
    "location": {
      "type": "Point",
      "coordinates": [
        -161.167,
        65.9833
      ]
    }
  },
  {
    "code": "BJA",
    "name": "Soummam Airport",
    "city": "Bejaia",
    "state": "Bejaia",
    "country": "Algeria",
    "tz": "Africa/Algiers",
    "type": "Airports",
    "stateCode": "Béjaïa Province",
    "countryCode": "DZ",
    "location": {
      "type": "Point",
      "coordinates": [
        5.0697,
        36.7133
      ]
    }
  },
  {
    "code": "BJM",
    "name": "Bujumbura Airport",
    "city": "Bujumbura",
    "state": "Bujumbura",
    "country": "Burundi",
    "tz": "Africa/Bujumbura",
    "type": "Airports",
    "stateCode": "Bujumbura Mairie",
    "countryCode": "BI",
    "location": {
      "type": "Point",
      "coordinates": [
        29.3208,
        -3.3317
      ]
    }
  },
  {
    "code": "BIL",
    "name": "Logan International Airport",
    "city": "Billings",
    "state": "Montana",
    "country": "United States",
    "tz": "America/Denver",
    "type": "Airports",
    "stateCode": "MT",
    "countryCode": "US",
    "location": {
      "type": "Point",
      "coordinates": [
        -108.537,
        45.8034
      ]
    }
  },
  {
    "code": "BKS",
    "name": "Padangkemiling Airport",
    "city": "Bengkulu",
    "state": "Bengkulu",
    "country": "Indonesia",
    "tz": "Asia/Jakarta",
    "type": "Airports",
    "stateCode": "Bengkulu",
    "countryCode": "ID",
    "location": {
      "type": "Point",
      "coordinates": [
        102.339,
        -3.8633
      ]
    }
  },
  {
    "code": "BLI",
    "name": "Bellingham International Airport",
    "city": "Bellingham",
    "state": "Washington",
    "country": "United States",
    "tz": "America/Los_Angeles",
    "type": "Airports",
    "stateCode": "WA",
    "countryCode": "US",
    "location": {
      "type": "Point",
      "coordinates": [
        -122.532,
        48.7955
      ]
    }
  },
  {
    "code": "BLZ",
    "name": "Chileka International Airport",
    "city": "Lunzu",
    "state": "Blantyre",
    "country": "Malawi",
    "tz": "Africa/Blantyre",
    "type": "Airports",
    "stateCode": "Southern Region",
    "countryCode": "MW",
    "location": {
      "type": "Point",
      "coordinates": [
        34.9714,
        -15.6764
      ]
    }
  },
  {
    "code": "BJI",
    "name": "Bemidji-Beltrami County Airport",
    "city": "Bemidji",
    "state": "Minnesota",
    "country": "United States",
    "tz": "America/Chicago",
    "type": "Airports",
    "stateCode": "MN",
    "countryCode": "US",
    "location": {
      "type": "Point",
      "coordinates": [
        -94.9338,
        47.5065
      ]
    }
  },
  {
    "code": "BKK",
    "name": "Bangkok International Airport",
    "city": "Lak Si",
    "state": "Bangkok",
    "country": "Thailand",
    "tz": "Asia/Bangkok",
    "type": "Airports",
    "stateCode": "Bangkok",
    "countryCode": "TH",
    "location": {
      "type": "Point",
      "coordinates": [
        100.608,
        13.9144
      ]
    },
    "macCode": "BKK"
  },
  {
    "code": "BLR",
    "name": "HAL Bangalore International Airport",
    "city": "Bangalore",
    "state": "Karnataka",
    "country": "India",
    "tz": "Asia/Kolkata",
    "type": "Airports",
    "stateCode": "KA",
    "countryCode": "IN",
    "location": {
      "type": "Point",
      "coordinates": [
        77.6656,
        12.9526
      ]
    }
  },
  {
    "code": "BLL",
    "name": "Billund Airport",
    "city": "Billund",
    "state": "Syddanmark",
    "country": "Denmark",
    "tz": "Europe/Copenhagen",
    "type": "Airports",
    "stateCode": "",
    "countryCode": "DK",
    "location": {
      "type": "Point",
      "coordinates": [
        9.15354,
        55.742
      ]
    }
  },
  {
    "code": "BLE",
    "name": "Dala Airport",
    "city": "Borlange",
    "state": "Dalarna",
    "country": "Sweden",
    "tz": "Europe/Stockholm",
    "type": "Airports",
    "stateCode": "Dalarna County",
    "countryCode": "SE",
    "location": {
      "type": "Point",
      "coordinates": [
        15.5081,
        60.4297
      ]
    }
  },
  {
    "code": "BLJ",
    "name": "Algeria",
    "city": "Batna",
    "state": "Batna",
    "country": "Algeria",
    "tz": "Africa/Algiers",
    "type": "Airports",
    "stateCode": "Batna Province",
    "countryCode": "DZ",
    "location": {
      "type": "Point",
      "coordinates": [
        6.17229,
        35.5572
      ]
    }
  },
  {
    "code": "BLQ",
    "name": "Bologna Airport",
    "city": "Bologna",
    "state": "Emilia Romagna",
    "country": "Italy",
    "tz": "Europe/Rome",
    "type": "Airports",
    "stateCode": "Emilia-Romagna",
    "countryCode": "IT",
    "location": {
      "type": "Point",
      "coordinates": [
        11.2903,
        44.5345
      ]
    }
  },
  {
    "code": "BLK",
    "name": "Blackpool Airport",
    "city": "Blackpool",
    "state": "England",
    "country": "United Kingdom",
    "tz": "Europe/London",
    "type": "Airports",
    "stateCode": "England",
    "countryCode": "GB",
    "location": {
      "type": "Point",
      "coordinates": [
        -3.04118,
        53.7756
      ]
    }
  },
  {
    "code": "BMA",
    "name": "Bromma Airport",
    "city": "Bromma",
    "state": "Stockholm",
    "country": "Sweden",
    "tz": "Europe/Stockholm",
    "type": "Airports",
    "stateCode": "Stockholm County",
    "countryCode": "SE",
    "location": {
      "type": "Point",
      "coordinates": [
        17.9378,
        59.3562
      ]
    },
    "macCode": "STO"
  },
  {
    "code": "BNE",
    "name": "Brisbane International Airport",
    "city": "Brisbane",
    "state": "Queensland",
    "country": "Australia",
    "tz": "Australia/Brisbane",
    "type": "Airports",
    "stateCode": "QLD",
    "countryCode": "AU",
    "location": {
      "type": "Point",
      "coordinates": [
        153.122,
        -27.3589
      ]
    }
  },
  {
    "code": "BME",
    "name": "Broome International Airport",
    "city": "Broome",
    "state": "Western Australia",
    "country": "Australia",
    "tz": "Australia/Perth",
    "type": "Airports",
    "stateCode": "WA",
    "countryCode": "AU",
    "location": {
      "type": "Point",
      "coordinates": [
        122.233,
        -17.9464
      ]
    }
  },
  {
    "code": "BOI",
    "name": "Boise Air Terminal",
    "city": "Boise",
    "state": "Idaho",
    "country": "United States",
    "tz": "America/Boise",
    "type": "Airports",
    "stateCode": "ID",
    "countryCode": "US",
    "location": {
      "type": "Point",
      "coordinates": [
        -116.222,
        43.5709
      ]
    }
  },
  {
    "code": "BOM",
    "name": "Chhatrapati Shivaji International Airport",
    "city": "Mumbai",
    "state": "Maharashtra",
    "country": "India",
    "tz": "Asia/Kolkata",
    "type": "Airports",
    "stateCode": "MH",
    "countryCode": "IN",
    "location": {
      "type": "Point",
      "coordinates": [
        72.8654,
        19.0932
      ]
    }
  },
  {
    "code": "BNN",
    "name": "Bronnoy Airport",
    "city": "Bronnoysund",
    "state": "Nordland Fylke",
    "country": "Norway",
    "tz": "Europe/Oslo",
    "type": "Airports",
    "stateCode": "Nordland",
    "countryCode": "NO",
    "location": {
      "type": "Point",
      "coordinates": [
        12.2161,
        65.462
      ]
    }
  },
  {
    "code": "BMI",
    "name": "Bloomington Normal Airport",
    "city": "Bloomington",
    "state": "Illinois",
    "country": "United States",
    "tz": "America/Chicago",
    "type": "Airports",
    "stateCode": "IL",
    "countryCode": "US",
    "location": {
      "type": "Point",
      "coordinates": [
        -88.9134,
        40.4841
      ]
    }
  },
  {
    "code": "BMU",
    "name": "Mohammad Salahuddin Airport",
    "city": "Raba",
    "state": "Nusa Tenggara Barat",
    "country": "Indonesia",
    "tz": "Asia/Jakarta",
    "type": "Airports",
    "stateCode": "West Nusa Tenggara",
    "countryCode": "ID",
    "location": {
      "type": "Point",
      "coordinates": [
        118.682,
        -8.5444
      ]
    }
  },
  {
    "code": "BND",
    "name": "Bandar Abbass International Airport",
    "city": "Bandar Abbas",
    "state": "Hormozgan",
    "country": "Iran",
    "tz": "Asia/Tehran",
    "type": "Airports",
    "stateCode": "Hormozgan Province",
    "countryCode": "IR",
    "location": {
      "type": "Point",
      "coordinates": [
        56.3783,
        27.225
      ]
    }
  },
  {
    "code": "BNX",
    "name": "Banja Luka Airport",
    "city": "Banja Luka",
    "state": "Republika Srpska",
    "country": "Bosnia and Herzegovina",
    "tz": "Europe/Sarajevo",
    "type": "Airports",
    "stateCode": "Republika Srpska",
    "countryCode": "BA",
    "location": {
      "type": "Point",
      "coordinates": [
        17.2992,
        44.9403
      ]
    }
  },
  {
    "code": "BNJ",
    "name": "Hangelar",
    "city": "Bonn",
    "state": "North-Rhine-Westphalia",
    "country": "Germany",
    "tz": "Europe/Berlin",
    "type": "Airports",
    "stateCode": "NRW",
    "countryCode": "DE",
    "location": {
      "type": "Point",
      "coordinates": [
        7.16449,
        50.7667
      ]
    }
  },
  {
    "code": "BNI",
    "name": "Benin Airport",
    "city": "Benin City",
    "state": "Edo",
    "country": "Nigeria",
    "tz": "Africa/Lagos",
    "type": "Airports",
    "stateCode": "Edo",
    "countryCode": "NG",
    "location": {
      "type": "Point",
      "coordinates": [
        5.6,
        6.3161
      ]
    }
  },
  {
    "code": "BNS",
    "name": "Barinas Airport",
    "city": "Barinas",
    "state": "Barinas",
    "country": "Venezuela",
    "tz": "America/Caracas",
    "type": "Airports",
    "stateCode": "Barinas",
    "countryCode": "VE",
    "location": {
      "type": "Point",
      "coordinates": [
        -70.2181,
        8.6211
      ]
    }
  },
  {
    "code": "BOD",
    "name": "Bordeaux Airport",
    "city": "Merignac",
    "state": "Aquitaine",
    "country": "France",
    "tz": "Europe/Paris",
    "type": "Airports",
    "stateCode": "Nouvelle-Aquitaine",
    "countryCode": "FR",
    "location": {
      "type": "Point",
      "coordinates": [
        -0.70278,
        44.8291
      ]
    }
  },
  {
    "code": "BOG",
    "name": "Eldorado International Airport",
    "city": "Fontibón",
    "state": "Distrito Especial",
    "country": "Colombia",
    "tz": "America/Bogota",
    "type": "Airports",
    "stateCode": "Bogotá",
    "countryCode": "CO",
    "location": {
      "type": "Point",
      "coordinates": [
        -74.1435,
        4.69895
      ]
    }
  },
  {
    "code": "BNA",
    "name": "Nashville International Airport",
    "city": "Nashville",
    "state": "Tennessee",
    "country": "United States",
    "tz": "America/Chicago",
    "type": "Airports",
    "stateCode": "TN",
    "countryCode": "US",
    "location": {
      "type": "Point",
      "coordinates": [
        -86.6682,
        36.1342
      ]
    }
  },
  {
    "code": "BOH",
    "name": "Bournemouth International Airport",
    "city": "Christchurch",
    "state": "England",
    "country": "United Kingdom",
    "tz": "Europe/London",
    "type": "Airports",
    "stateCode": "England",
    "countryCode": "GB",
    "location": {
      "type": "Point",
      "coordinates": [
        -1.83424,
        50.7797
      ]
    }
  },
  {
    "code": "BOB",
    "name": "Motu-Mute Airport",
    "city": "Papeete",
    "state": "Leeward Islands",
    "country": "French Polynesia",
    "tz": "Pacific/Tahiti",
    "type": "Airports",
    "stateCode": "Leeward Islands",
    "countryCode": "PF",
    "location": {
      "type": "Point",
      "coordinates": [
        -151.767,
        -16.45
      ]
    }
  },
  {
    "code": "BNK",
    "name": "Ballina Airport",
    "city": "Ballina",
    "state": "New South Wales",
    "country": "Australia",
    "tz": "Australia/Brisbane",
    "type": "Airports",
    "stateCode": "NSW",
    "countryCode": "AU",
    "location": {
      "type": "Point",
      "coordinates": [
        153.555,
        -28.8342
      ]
    }
  },
  {
    "code": "BON",
    "name": "Flamingo Airport",
    "city": "Kralendijk",
    "state": "Bonaire",
    "country": "Netherlands Antilles",
    "tz": "America/Curacao",
    "type": "Airports",
    "stateCode": "Bonaire",
    "countryCode": "BQ",
    "location": {
      "type": "Point",
      "coordinates": [
        -68.2697,
        12.1392
      ]
    }
  },
  {
    "code": "BOO",
    "name": "Bodo Airport",
    "city": "Bodo",
    "state": "Nordland Fylke",
    "country": "Norway",
    "tz": "Europe/Oslo",
    "type": "Airports",
    "stateCode": "Nordland",
    "countryCode": "NO",
    "location": {
      "type": "Point",
      "coordinates": [
        14.3653,
        67.2709
      ]
    }
  },
  {
    "code": "BOJ",
    "name": "Bourgas Airport",
    "city": "Burgas",
    "state": "Burgas",
    "country": "Bulgaria",
    "tz": "Europe/Sofia",
    "type": "Airports",
    "stateCode": "Burgas",
    "countryCode": "BG",
    "location": {
      "type": "Point",
      "coordinates": [
        27.5,
        42.5667
      ]
    }
  },
  {
    "code": "BRD",
    "name": "Brainerd-Crow Wing County Regional Airport",
    "city": "Brainerd",
    "state": "Minnesota",
    "country": "United States",
    "tz": "America/Chicago",
    "type": "Airports",
    "stateCode": "MN",
    "countryCode": "US",
    "location": {
      "type": "Point",
      "coordinates": [
        -94.1413,
        46.3909
      ]
    }
  },
  {
    "code": "BQN",
    "name": "Rafael Hernandez Airport",
    "city": "Aguadilla",
    "state": "Puerto Rico",
    "country": "United States",
    "tz": "America/Puerto_Rico",
    "type": "Airports",
    "stateCode": "Aguadilla",
    "countryCode": "PR",
    "location": {
      "type": "Point",
      "coordinates": [
        -67.1357,
        18.496
      ]
    }
  },
  {
    "code": "BOS",
    "name": "Gen E L Logan International Airport",
    "city": "Boston",
    "state": "Massachusetts",
    "country": "United States",
    "tz": "America/New_York",
    "type": "Airports",
    "stateCode": "MA",
    "countryCode": "US",
    "location": {
      "type": "Point",
      "coordinates": [
        -71.0281,
        42.3717
      ]
    }
  },
  {
    "code": "BPN",
    "name": "Sepinggan Airport",
    "city": "Balikpapan",
    "state": "Kalimantan Timur",
    "country": "Indonesia",
    "tz": "Asia/Jakarta",
    "type": "Airports",
    "stateCode": "East Kalimantan",
    "countryCode": "ID",
    "location": {
      "type": "Point",
      "coordinates": [
        116.897,
        -1.2681
      ]
    }
  },
  {
    "code": "BQS",
    "name": "Blagoveshchensk Northwest Airport",
    "city": "Blagoveshchensk",
    "state": "Amurskaya Oblast",
    "country": "Russia",
    "tz": "Asia/Yakutsk",
    "type": "Airports",
    "stateCode": "Amur Oblast",
    "countryCode": "RU",
    "location": {
      "type": "Point",
      "coordinates": [
        127.409,
        50.4243
      ]
    }
  },
  {
    "code": "BRE",
    "name": "Bremen Airport",
    "city": "Bremen",
    "state": "Bremen",
    "country": "Germany",
    "tz": "Europe/Berlin",
    "type": "Airports",
    "stateCode": "HB",
    "countryCode": "DE",
    "location": {
      "type": "Point",
      "coordinates": [
        8.78533,
        53.0523
      ]
    }
  },
  {
    "code": "BRC",
    "name": "San Carlos de Bariloche Airport",
    "city": "San Carlos DeBariloche",
    "state": "Santa Fe",
    "country": "Argentina",
    "tz": "America/Argentina/Cordoba",
    "type": "Airports",
    "stateCode": "Río Negro",
    "countryCode": "AR",
    "location": {
      "type": "Point",
      "coordinates": [
        -71.1581,
        -41.1511
      ]
    }
  },
  {
    "code": "BRN",
    "name": "Bern Belp Airport",
    "city": "Belp",
    "state": "Canton of Berne",
    "country": "Switzerland",
    "tz": "Europe/Zurich",
    "type": "Airports",
    "stateCode": "BE",
    "countryCode": "CH",
    "location": {
      "type": "Point",
      "coordinates": [
        7.49929,
        46.9124
      ]
    }
  },
  {
    "code": "BQK",
    "name": "Glynco Jetport Airport",
    "city": "Brunswick",
    "state": "Georgia",
    "country": "United States",
    "tz": "America/New_York",
    "type": "Airports",
    "stateCode": "GA",
    "countryCode": "US",
    "location": {
      "type": "Point",
      "coordinates": [
        -81.4703,
        31.2525
      ]
    }
  },
  {
    "code": "BRI",
    "name": "Palese Macchie Airport",
    "city": "Bari",
    "state": "Puglia",
    "country": "Italy",
    "tz": "Europe/Rome",
    "type": "Airports",
    "stateCode": "Apulia",
    "countryCode": "IT",
    "location": {
      "type": "Point",
      "coordinates": [
        16.7674,
        41.1376
      ]
    }
  },
  {
    "code": "BRL",
    "name": "Burlington Municipal Airport",
    "city": "Burlington",
    "state": "Iowa",
    "country": "United States",
    "tz": "America/Chicago",
    "type": "Airports",
    "stateCode": "IA",
    "countryCode": "US",
    "location": {
      "type": "Point",
      "coordinates": [
        -91.1197,
        40.7816
      ]
    }
  },
  {
    "code": "BRU",
    "name": "Brussels Airport",
    "city": "Bruxelles",
    "state": "Vlaams Brabant",
    "country": "Belgium",
    "tz": "Europe/Brussels",
    "type": "Airports",
    "stateCode": "Brussels",
    "countryCode": "BE",
    "location": {
      "type": "Point",
      "coordinates": [
        4.4859,
        50.899
      ]
    },
    "macCode": "BRU"
  },
  {
    "code": "BRF",
    "name": "United Kingdom",
    "city": "Bradford",
    "state": "",
    "country": "United Kingdom",
    "tz": "Europe/London",
    "type": "Railway Stations",
    "stateCode": "England",
    "countryCode": "GB",
    "location": {
      "type": "Point",
      "coordinates": [
        -2.23218,
        54.3139
      ]
    }
  },
  {
    "code": "BPT",
    "name": "Jefferson County Airport",
    "city": "Beaumont",
    "state": "Texas",
    "country": "United States",
    "tz": "America/Chicago",
    "type": "Airports",
    "stateCode": "TX",
    "countryCode": "US",
    "location": {
      "type": "Point",
      "coordinates": [
        -94.0185,
        29.9551
      ]
    }
  },
  {
    "code": "BRR",
    "name": "North Bay Airport",
    "city": "Barra",
    "state": "England",
    "country": "United Kingdom",
    "tz": "Europe/London",
    "type": "Airports",
    "stateCode": "England",
    "countryCode": "GB",
    "location": {
      "type": "Point",
      "coordinates": [
        -7.44967,
        57.0251
      ]
    }
  },
  {
    "code": "BRM",
    "name": "Barquisimeto Airport",
    "city": "Barquisimeto",
    "state": "Lara",
    "country": "Venezuela",
    "tz": "America/Caracas",
    "type": "Airports",
    "stateCode": "Lara",
    "countryCode": "VE",
    "location": {
      "type": "Point",
      "coordinates": [
        -69.3561,
        10.0453
      ]
    }
  },
  {
    "code": "BRQ",
    "name": "Turany Airport",
    "city": "Brno",
    "state": "Jihomoravský",
    "country": "Czech Republic",
    "tz": "Europe/Prague",
    "type": "Airports",
    "stateCode": "",
    "countryCode": "CZ",
    "location": {
      "type": "Point",
      "coordinates": [
        16.6908,
        49.1535
      ]
    }
  },
  {
    "code": "BRW",
    "name": "Wiley Post Will Rogers Memorial Airport",
    "city": "Barrow",
    "state": "Alaska",
    "country": "United States",
    "tz": "America/Nome",
    "type": "Airports",
    "stateCode": "AK",
    "countryCode": "US",
    "location": {
      "type": "Point",
      "coordinates": [
        -156.772,
        71.2892
      ]
    }
  },
  {
    "code": "BPS",
    "name": "Porto Seguro Airport",
    "city": "Porto Seguro",
    "state": "Bahia",
    "country": "Brazil",
    "tz": "America/Bahia",
    "type": "Airports",
    "stateCode": "BA",
    "countryCode": "BR",
    "location": {
      "type": "Point",
      "coordinates": [
        -39.0833,
        -16.4406
      ]
    }
  },
  {
    "code": "BSA",
    "name": "Somalia",
    "city": "Bossaso",
    "state": "Bari",
    "country": "Somalia",
    "tz": "Africa/Mogadishu",
    "type": "Airports",
    "stateCode": "Bari",
    "countryCode": "SO",
    "location": {
      "type": "Point",
      "coordinates": [
        49.1814,
        11.2775
      ]
    }
  },
  {
    "code": "BSD",
    "name": "Baoshan Airport",
    "city": "Baoshan",
    "state": "Yunnan",
    "country": "China",
    "tz": "Asia/Chongqing",
    "type": "Airports",
    "stateCode": "Yunnan",
    "countryCode": "CN",
    "location": {
      "type": "Point",
      "coordinates": [
        99.1639,
        25.0604
      ]
    }
  },
  {
    "code": "BRO",
    "name": "Brownsville-South Padre Island International Air",
    "city": "Brownsville",
    "state": "Texas",
    "country": "United States",
    "tz": "America/Chicago",
    "type": "Airports",
    "stateCode": "TX",
    "countryCode": "US",
    "location": {
      "type": "Point",
      "coordinates": [
        -97.4321,
        25.9064
      ]
    }
  },
  {
    "code": "BRS",
    "name": "Bristol International Airport",
    "city": "Bristol",
    "state": "England",
    "country": "United Kingdom",
    "tz": "Europe/London",
    "type": "Airports",
    "stateCode": "England",
    "countryCode": "GB",
    "location": {
      "type": "Point",
      "coordinates": [
        -2.70526,
        51.3848
      ]
    }
  },
  {
    "code": "BSB",
    "name": "Juscelino Kubitschek International Airport",
    "city": "Lago Sul",
    "state": "Distrito Federal",
    "country": "Brazil",
    "tz": "America/Sao_Paulo",
    "type": "Airports",
    "stateCode": "DF",
    "countryCode": "BR",
    "location": {
      "type": "Point",
      "coordinates": [
        -47.9122,
        -15.8622
      ]
    }
  },
  {
    "code": "BSL",
    "name": "Euroairport Basel-Mulhouse-Freiburg",
    "city": "St-Ludwig",
    "state": "Alsace",
    "country": "France",
    "tz": "Europe/Zurich",
    "type": "Airports",
    "stateCode": "Grand Est",
    "countryCode": "FR",
    "location": {
      "type": "Point",
      "coordinates": [
        7.532,
        47.5998
      ]
    },
    "macCode": "EAP"
  },
  {
    "code": "BSH",
    "name": "Brighton Airport",
    "city": "Brighton",
    "state": "England",
    "country": "United Kingdom",
    "tz": "Europe/London",
    "type": "Railway Stations",
    "stateCode": "England",
    "countryCode": "GB",
    "location": {
      "type": "Point",
      "coordinates": [
        -0.13333,
        50.8333
      ]
    }
  },
  {
    "code": "BSK",
    "name": "Biskra Airport",
    "city": "Biskra",
    "state": "Biskra",
    "country": "Algeria",
    "tz": "Africa/Algiers",
    "type": "Airports",
    "stateCode": "Biskra Province",
    "countryCode": "DZ",
    "location": {
      "type": "Point",
      "coordinates": [
        5.74,
        34.7933
      ]
    }
  },
  {
    "code": "BTH",
    "name": "Hang Nadim Airport",
    "city": "Batam",
    "state": "Riau",
    "country": "Indonesia",
    "tz": "Asia/Jakarta",
    "type": "Airports",
    "stateCode": "Riau Islands",
    "countryCode": "ID",
    "location": {
      "type": "Point",
      "coordinates": [
        104.134,
        1.1306
      ]
    }
  },
  {
    "code": "BTJ",
    "name": "Blangbintang Airport",
    "city": "Banda Aceh",
    "state": "Aceh",
    "country": "Indonesia",
    "tz": "Asia/Jakarta",
    "type": "Airports",
    "stateCode": "Aceh",
    "countryCode": "ID",
    "location": {
      "type": "Point",
      "coordinates": [
        95.4181,
        5.5197
      ]
    }
  },
  {
    "code": "BTL",
    "name": "W K Kellogg Airport",
    "city": "Battle Creek",
    "state": "Michigan",
    "country": "United States",
    "tz": "America/Detroit",
    "type": "Airports",
    "stateCode": "MI",
    "countryCode": "US",
    "location": {
      "type": "Point",
      "coordinates": [
        -85.2448,
        42.3046
      ]
    }
  },