[
  {
    "code": "FEG",
    "name": "Fergana",
    "city": "Fergana",
    "state": "Farghona",
    "country": "Uzbekistan",
    "tz": "Asia/Samarkand",
    "type": "Airports",
    "direct_flights": "6",
    "carriers": "4",
    "stateCode": "",
    "countryCode": "UZ",
    "location": {
      "type": "Point",
      "coordinates": [
        71.7667,
        40.3833
      ]
    }
  },
  {
    "code": "FRA",
    "name": "Frankfurt International Airport",
    "city": "Frankfurt",
    "state": "Hesse",
    "country": "Germany",
    "tz": "Europe/Berlin",
    "type": "Airports",
    "direct_flights": "337",
    "carriers": "131",
    "stateCode": "",
    "countryCode": "DE",
    "location": {
      "type": "Point",
      "coordinates": [
        8.57041,
        50.0483
      ]
    }
  },
  {
    "code": "AMS",
    "name": "Schiphol Airport",
    "city": "Amsterdam",
    "state": "North Holland",
    "country": "Netherlands",
    "tz": "Europe/Amsterdam",
    "type": "Airports",
    "direct_flights": "284",
    "carriers": "118",
    "stateCode": "",
    "countryCode": "NL",
    "location": {
      "type": "Point",
      "coordinates": [
        4.77511,
        52.3122
      ]
    }
  },
  {
    "code": "ATL",
    "name": "Hartsfield-Jackson Atlanta International Airport",
    "city": "Atlanta",
    "state": "Georgia",
    "country": "United States",
    "tz": "America/New_York",
    "type": "Airports",
    "direct_flights": "253",
    "carriers": "60",
    "stateCode": "GA",
    "countryCode": "US",
    "location": {
      "type": "Point",
      "coordinates": [
        -84.4333,
        33.6558
      ]
    }
  },
  {
    "code": "JFK",
    "name": "John F Kennedy International Airport",
    "city": "New York",
    "state": "New York",
    "country": "United States",
    "tz": "America/New_York",
    "type": "Airports",
    "direct_flights": "233",
    "carriers": "100",
    "stateCode": "NY",
    "countryCode": "US",
    "location": {
      "type": "Point",
      "coordinates": [
        -73.79,
        40.6437
      ]
    },
    "macCode": "NYC"
  },
  {
    "code": "LGW",
    "name": "London Gatwick Airport",
    "city": "London",
    "state": "England",
    "country": "United Kingdom",
    "tz": "Europe/London",
    "type": "Airports",
    "direct_flights": "227",
    "carriers": "71",
    "stateCode": "",
    "countryCode": "GB",
    "location": {
      "type": "Point",
      "coordinates": [
        -0.16988,
        51.1568
      ]
    },
    "macCode": "LON"
  },
  {
    "code": "LHR",
    "name": "London Heathrow Airport",
    "city": "London",
    "state": "England",
    "country": "United Kingdom",
    "tz": "Europe/London",
    "type": "Airports",
    "direct_flights": "227",
    "carriers": "105",
    "stateCode": "",
    "countryCode": "GB",
    "location": {
      "type": "Point",
      "coordinates": [
        -0.45342,
        51.4703
      ]
    },
    "macCode": "LON"
  },
  {
    "code": "ORD",
    "name": "Chicago O'Hare International Airport",
    "city": "Chicago",
    "state": "Illinois",
    "country": "United States",
    "tz": "America/Chicago",
    "type": "Airports",
    "direct_flights": "222",
    "carriers": "85",
    "stateCode": "IL",
    "countryCode": "US",
    "location": {
      "type": "Point",
      "coordinates": [
        -87.8825,
        41.9796
      ]
    },
    "macCode": "CHI"
  },
  {
    "code": "EWR",
    "name": "Newark International Airport",
    "city": "New York",
    "state": "New Jersey",
    "country": "United States",
    "tz": "America/New_York",
    "type": "Airports",
    "direct_flights": "220",
    "carriers": "64",
    "stateCode": "NJ",
    "countryCode": "US",
    "location": {
      "type": "Point",
      "coordinates": [
        -74.1843,
        40.6924
      ]
    },
    "macCode": "NYC"
  },
  {
    "code": "MUC",
    "name": "Franz-Josef-Strauss Airport",
    "city": "Munich",
    "state": "Bavaria",
    "country": "Germany",
    "tz": "Europe/Berlin",
    "type": "Airports",
    "direct_flights": "213",
    "carriers": "95",
    "stateCode": "",
    "countryCode": "DE",
    "location": {
      "type": "Point",
      "coordinates": [
        11.7816,
        48.354
      ]
    }
  },
  {
    "code": "IAH",
    "name": "George Bush Intercontinental Airport",
    "city": "Houston",
    "state": "Texas",
    "country": "United States",
    "tz": "America/Chicago",
    "type": "Airports",
    "direct_flights": "210",
    "carriers": "54",
    "stateCode": "TX",
    "countryCode": "US",
    "location": {
      "type": "Point",
      "coordinates": [
        -95.3424,
        29.9784
      ]
    }
  },
  {
    "code": "LAX",
    "name": "Los Angeles International Airport",
    "city": "Los Angeles",
    "state": "California",
    "country": "United States",
    "tz": "America/Los_Angeles",
    "type": "Airports",
    "direct_flights": "200",
    "carriers": "99",
    "stateCode": "CA",
    "countryCode": "US",
    "location": {
      "type": "Point",
      "coordinates": [
        -118.391,
        33.9456
      ]
    }
  },
  {
    "code": "BRU",
    "name": "Brussels Airport",
    "city": "Brussels",
    "state": "Vlaams Brabant",
    "country": "Belgium",
    "tz": "Europe/Brussels",
    "type": "Airports",
    "direct_flights": "186",
    "carriers": "97",
    "stateCode": "",
    "countryCode": "BE",
    "location": {
      "type": "Point",
      "coordinates": [
        4.4859,
        50.899
      ]
    },
    "macCode": "BRU"
  },
  {
    "code": "MAD",
    "name": "Barajas Airport",
    "city": "Madrid",
    "state": "Madrid",
    "country": "Spain",
    "tz": "Europe/Madrid",
    "type": "Airports",
    "direct_flights": "186",
    "carriers": "93",
    "stateCode": "",
    "countryCode": "ES",
    "location": {
      "type": "Point",
      "coordinates": [
        -3.56769,
        40.4684
      ]
    }
  },
  {
    "code": "VIE",
    "name": "Vienna Schwechat International Airport",
    "city": "Vienna",
    "state": "Lower Austria",
    "country": "Austria",
    "tz": "Europe/Vienna",
    "type": "Airports",
    "direct_flights": "183",
    "carriers": "96",
    "stateCode": "",
    "countryCode": "AT",
    "location": {
      "type": "Point",
      "coordinates": [
        16.5804,
        48.1036
      ]
    },
    "macCode": "VIE"
  },
  {
    "code": "FCO",
    "name": "Leonardo da Vinci International Airport",
    "city": "Rome",
    "state": "Lazio",
    "country": "Italy",
    "tz": "Europe/Rome",
    "type": "Airports",
    "direct_flights": "181",
    "carriers": "124",
    "stateCode": "",
    "countryCode": "IT",
    "location": {
      "type": "Point",
      "coordinates": [
        12.2551,
        41.8026
      ]
    },
    "macCode": "ROM"
  },
  {
    "code": "DFW",
    "name": "Fort Worth International Airport",
    "city": "Dallas",
    "state": "Texas",
    "country": "United States",
    "tz": "America/Chicago",
    "type": "Airports",
    "direct_flights": "179",
    "carriers": "62",
    "stateCode": "TX",
    "countryCode": "US",
    "location": {
      "type": "Point",
      "coordinates": [
        -97.0409,
        32.9222
      ]
    }
  },
  {
    "code": "YYZ",
    "name": "Toronto Lester B Pearson International Airport",
    "city": "Toronto",
    "state": "Ontario",
    "country": "Canada",
    "tz": "America/Toronto",
    "type": "Airports",
    "direct_flights": "176",
    "carriers": "66",
    "stateCode": "ON",
    "countryCode": "CA",
    "location": {
      "type": "Point",
      "coordinates": [
        -79.6142,
        43.685
      ]
    },
    "macCode": "YTO"
  },
  {
    "code": "MSP",
    "name": "Minneapolis St Paul International Airport",
    "city": "Minneapolis",
    "state": "Minnesota",
    "country": "United States",
    "tz": "America/Chicago",
    "type": "Airports",
    "direct_flights": "171",
    "carriers": "41",
    "stateCode": "MN",
    "countryCode": "US",
    "location": {
      "type": "Point",
      "coordinates": [
        -93.1987,
        44.8793
      ]
    }
  },
  {
    "code": "DXB",
    "name": "Dubai International Airport",
    "city": "Dubai",
    "state": "Dubai",
    "country": "United Arab Emirates",
    "tz": "Asia/Dubai",
    "type": "Airports",
    "direct_flights": "170",
    "carriers": "126",
    "stateCode": "",
    "countryCode": "AE",
    "location": {
      "type": "Point",
      "coordinates": [
        55.3629,
        25.2509
      ]
    },
    "macCode": "DXB"
  },
  {
    "code": "STN",
    "name": "London Stansted International Airport",
    "city": "London",
    "state": "England",
    "country": "United Kingdom",
    "tz": "Europe/London",
    "type": "Airports",
    "direct_flights": "168",
    "carriers": "25",
    "stateCode": "",
    "countryCode": "GB",
    "location": {
      "type": "Point",
      "coordinates": [
        0.26151,
        51.8894
      ]
    },
    "macCode": "LON"
  },
  {
    "code": "DUB",
    "name": "Dublin Airport",
    "city": "Dublin",
    "state": "",
    "country": "Ireland",
    "tz": "Europe/Dublin",
    "type": "Airports",
    "direct_flights": "167",
    "carriers": "54",
    "stateCode": "",
    "countryCode": "IE",
    "location": {
      "type": "Point",
      "coordinates": [
        -6.24418,
        53.4272
      ]
    }
  },
  {
    "code": "DUS",
    "name": "Dusseldorf International Airport",
    "city": "Dusseldorf",
    "state": "North Rhine-Westphalia",
    "country": "Germany",
    "tz": "Europe/Berlin",
    "type": "Airports",
    "direct_flights": "167",
    "carriers": "74",
    "stateCode": "",
    "countryCode": "DE",
    "location": {
      "type": "Point",
      "coordinates": [
        6.76481,
        51.2794
      ]
    },
    "macCode": "DUS"
  },
  {
    "code": "MIA",
    "name": "Miami International Airport",
    "city": "Miami",
    "state": "Florida",
    "country": "United States",
    "tz": "America/New_York",
    "type": "Airports",
    "direct_flights": "167",
    "carriers": "91",
    "stateCode": "FL",
    "countryCode": "US",
    "location": {
      "type": "Point",
      "coordinates": [
        -80.2727,
        25.7953
      ]
    }
  },
  {
    "code": "DME",
    "name": "Domodedovo Airport",
    "city": "Moscow",
    "state": "Moskovskaya Oblast",
    "country": "Russia",
    "tz": "Europe/Moscow",
    "type": "Airports",
    "direct_flights": "165",
    "carriers": "71",
    "stateCode": "",
    "countryCode": "RU",
    "location": {
      "type": "Point",
      "coordinates": [
        37.9136,
        55.4025
      ]
    },
    "macCode": "MOW"
  },
  {
    "code": "PEK",
    "name": "Beijing Capital Airport",
    "city": "Beijing",
    "state": "Beijing",
    "country": "China",
    "tz": "Asia/Shanghai",
    "type": "Airports",
    "direct_flights": "165",
    "carriers": "84",
    "stateCode": "",
    "countryCode": "CN",
    "location": {
      "type": "Point",
      "coordinates": [
        116.583,
        40.0724
      ]
    },
    "macCode": "BJS"
  },
  {
    "code": "MXP",
    "name": "Malpensa International Airport",
    "city": "Milan",
    "state": "Lombardy",
    "country": "Italy",
    "tz": "Europe/Rome",
    "type": "Airports",
    "direct_flights": "163",
    "carriers": "109",
    "stateCode": "",
    "countryCode": "IT",
    "location": {
      "type": "Point",
      "coordinates": [
        8.72284,
        45.6314
      ]
    },
    "macCode": "MIL"
  },
  {
    "code": "DEN",
    "name": "Denver International Airport",
    "city": "Denver",
    "state": "Colorado",
    "country": "United States",
    "tz": "America/Denver",
    "type": "Airports",
    "direct_flights": "162",
    "carriers": "57",
    "stateCode": "CO",
    "countryCode": "US",
    "location": {
      "type": "Point",
      "coordinates": [
        -104.672,
        39.8396
      ]
    }
  },
  {
    "code": "DTW",
    "name": "Detroit Metropolitan Wayne County Airport",
    "city": "Detroit",
    "state": "Michigan",
    "country": "United States",
    "tz": "America/New_York",
    "type": "Airports",
    "direct_flights": "161",
    "carriers": "45",
    "stateCode": "MI",
    "countryCode": "US",
    "location": {
      "type": "Point",
      "coordinates": [
        -83.3412,
        42.2327
      ]
    },
    "macCode": "DTT"
  },
  {
    "code": "ZRH",
    "name": "Zurich International Airport",
    "city": "Zurich",
    "state": "Canton of Zurich",
    "country": "Switzerland",
    "tz": "Europe/Zurich",
    "type": "Airports",
    "direct_flights": "161",
    "carriers": "79",
    "stateCode": "",
    "countryCode": "CH",
    "location": {
      "type": "Point",
      "coordinates": [
        8.56137,
        47.454
      ]
    }
  },
  {
    "code": "IST",
    "name": "Ataturk Hava Limani Airport",
    "city": "Istanbul",
    "state": "Istanbul",
    "country": "Turkey",
    "tz": "Europe/Istanbul",
    "type": "Airports",
    "direct_flights": "157",
    "carriers": "79",
    "stateCode": "",
    "countryCode": "TR",
    "location": {
      "type": "Point",
      "coordinates": [
        28.8163,
        40.9857
      ]
    },
    "macCode": "IST"
  },
  {
    "code": "IAD",
    "name": "Dulles International Airport",
    "city": "Washington",
    "state": "Virginia",
    "country": "United States",
    "tz": "America/New_York",
    "type": "Airports",
    "direct_flights": "150",
    "carriers": "63",
    "stateCode": "DC",
    "countryCode": "US",
    "location": {
      "type": "Point",
      "coordinates": [
        -77.4484,
        38.9556
      ]
    },
    "macCode": "WAS"
  },
  {
    "code": "SFO",
    "name": "San Francisco International Airport",
    "city": "San Francisco",
    "state": "California",
    "country": "United States",
    "tz": "America/Los_Angeles",
    "type": "Airports",
    "direct_flights": "147",
    "carriers": "76",
    "stateCode": "CA",
    "countryCode": "US",
    "location": {
      "type": "Point",
      "coordinates": [
        -122.392,
        37.6148
      ]
    }
  },
  {
    "code": "BCN",
    "name": "Barcelona International Airport",
    "city": "Barcelona",
    "state": "Catalonia",
    "country": "Spain",
    "tz": "Europe/Madrid",
    "type": "Airports",
    "direct_flights": "145",
    "carriers": "90",
    "stateCode": "",
    "countryCode": "ES",
    "location": {
      "type": "Point",
      "coordinates": [
        2.07976,
        41.3006
      ]
    }
  },
  {
    "code": "SVO",
    "name": "Sheremtyevo Airport",
    "city": "Moscow",
    "state": "Moskovskaya Oblast",
    "country": "Russia",
    "tz": "Europe/Moscow",
    "type": "Airports",
    "direct_flights": "140",
    "carriers": "48",
    "stateCode": "",
    "countryCode": "RU",
    "location": {
      "type": "Point",
      "coordinates": [
        37.4189,
        55.9621
      ]
    },
    "macCode": "MOW"
  },
  {
    "code": "ICN",
    "name": "New Incheon International Airport",
    "city": "Seoul",
    "state": "Incheon",
    "country": "South Korea",
    "tz": "Asia/Seoul",
    "type": "Airports",
    "direct_flights": "139",
    "carriers": "76",
    "stateCode": "",
    "countryCode": "KR",
    "location": {
      "type": "Point",
      "coordinates": [
        126.657,
        37.4534
      ]
    },
    "macCode": "SEL"
  },
  {
    "code": "ORY",
    "name": "Paris Orly Airport",
    "city": "Paris",
    "state": "Ile-de-France",
    "country": "France",
    "tz": "Europe/Paris",
    "type": "Airports",
    "direct_flights": "138",
    "carriers": "52",
    "stateCode": "",
    "countryCode": "FR",
    "location": {
      "type": "Point",
      "coordinates": [
        2.36411,
        48.7261
      ]
    },
    "macCode": "PAR"
  },
  {
    "code": "CPH",
    "name": "Copenhagen Airport",
    "city": "Copenhagen",
    "state": "Hovedstaden",
    "country": "Denmark",
    "tz": "Europe/Copenhagen",
    "type": "Airports",
    "direct_flights": "136",
    "carriers": "76",
    "stateCode": "",
    "countryCode": "DK",
    "location": {
      "type": "Point",
      "coordinates": [
        12.6495,
        55.6205
      ]
    }
  },
  {
    "code": "CLT",
    "name": "Douglas International Airport",
    "city": "Charlotte",
    "state": "North Carolina",
    "country": "United States",
    "tz": "America/New_York",
    "type": "Airports",
    "direct_flights": "133",
    "carriers": "39",
    "stateCode": "NC",
    "countryCode": "US",
    "location": {
      "type": "Point",
      "coordinates": [
        -80.946,
        35.2226
      ]
    }
  },
  {
    "code": "PHL",
    "name": "Philadelphia International Airport",
    "city": "Philadelphia",
    "state": "Pennsylvania",
    "country": "United States",
    "tz": "America/New_York",
    "type": "Airports",
    "direct_flights": "133",
    "carriers": "51",
    "stateCode": "PA",
    "countryCode": "US",
    "location": {
      "type": "Point",
      "coordinates": [
        -75.2419,
        39.8768
      ]
    }
  },
  {
    "code": "BKK",
    "name": "Bangkok International Airport",
    "city": "Bangkok",
    "state": "Bangkok",
    "country": "Thailand",
    "tz": "Asia/Bangkok",
    "type": "Airports",
    "direct_flights": "132",
    "carriers": "113",
    "stateCode": "",
    "countryCode": "TH",
    "location": {
      "type": "Point",
      "coordinates": [
        100.608,
        13.9144
      ]
    },
    "macCode": "BKK"
  },
  {
    "code": "HKG",
    "name": "Hong Kong International Airport",
    "city": "Hong Kong",
    "state": "Hong Kong Island",
    "country": "Hong Kong",
    "tz": "Asia/Hong_Kong",
    "type": "Airports",
    "direct_flights": "131",
    "carriers": "87",
    "stateCode": "",
    "countryCode": "HK",
    "location": {
      "type": "Point",
      "coordinates": [
        113.929,
        22.3124
      ]
    }
  },
  {
    "code": "PRG",
    "name": "Prague Ruzyne Airport",
    "city": "Prague",
    "state": "Hlavni mesto Praha",
    "country": "Czech Republic",
    "tz": "Europe/Prague",
    "type": "Airports",
    "direct_flights": "131",
    "carriers": "66",
    "stateCode": "",
    "countryCode": "CZ",
    "location": {
      "type": "Point",
      "coordinates": [
        14.2675,
        50.1079
      ]
    }
  },
  {
    "code": "PVG",
    "name": "Pudong International Airport",
    "city": "Shanghai",
    "state": "Shanghai",
    "country": "China",
    "tz": "Asia/Shanghai",
    "type": "Airports",
    "direct_flights": "131",
    "carriers": "76",
    "stateCode": "",
    "countryCode": "CN",
    "location": {
      "type": "Point",
      "coordinates": [
        121.803,
        31.1156
      ]
    },
    "macCode": "SHA"
  },
  {
    "code": "LAS",
    "name": "Mccarran International Airport",
    "city": "Las Vegas",
    "state": "Nevada",
    "country": "United States",
    "tz": "America/Los_Angeles",
    "type": "Airports",
    "direct_flights": "130",
    "carriers": "64",
    "stateCode": "NV",
    "countryCode": "US",
    "location": {
      "type": "Point",
      "coordinates": [
        -115.143,
        36.0806
      ]
    }
  },
  {
    "code": "CGN",
    "name": "Cologne Bonn Airport",
    "city": "Cologne",
    "state": "North Rhine-Westphalia",
    "country": "Germany",
    "tz": "Europe/Berlin",
    "type": "Airports",
    "direct_flights": "129",
    "carriers": "45",
    "stateCode": "",
    "countryCode": "DE",
    "location": {
      "type": "Point",
      "coordinates": [
        7.12293,
        50.8784
      ]
    },
    "macCode": "CGN"
  },
  {
    "code": "MAN",
    "name": "Manchester International Airport",
    "city": "Manchester",
    "state": "England",
    "country": "United Kingdom",
    "tz": "Europe/London",
    "type": "Airports",
    "direct_flights": "129",
    "carriers": "79",
    "stateCode": "",
    "countryCode": "GB",
    "location": {
      "type": "Point",
      "coordinates": [
        -2.27089,
        53.365
      ]
    }
  },
  {
    "code": "ARN",
    "name": "Arlanda Airport",
    "city": "Stockholm",
    "state": "Stockholm",
    "country": "Sweden",
    "tz": "Europe/Stockholm",
    "type": "Airports",
    "direct_flights": "126",
    "carriers": "76",
    "stateCode": "",
    "countryCode": "SE",
    "location": {
      "type": "Point",
      "coordinates": [
        17.9317,
        59.6521
      ]
    },
    "macCode": "STO"
  },
  {
    "code": "GVA",
    "name": "Geneva Airport",
    "city": "Geneva",
    "state": "Canton of Geneva",
    "country": "Switzerland",
    "tz": "Europe/Zurich",
    "type": "Airports",
    "direct_flights": "122",
    "carriers": "71",
    "stateCode": "",
    "countryCode": "CH",
    "location": {
      "type": "Point",
      "coordinates": [
        6.10682,
        46.2329
      ]
    }
  },
  {
    "code": "LED",
    "name": "Pulkuvo 2 Airport",
    "city": "Saint Petersburg",
    "state": "St. Peterburg",
    "country": "Russia",
    "tz": "Europe/Moscow",
    "type": "Airports",
    "direct_flights": "121",
    "carriers": "58",
    "stateCode": "",
    "countryCode": "RU",
    "location": {
      "type": "Point",
      "coordinates": [
        30.3,
        59.9667
      ]
    }
  },
  {
    "code": "LUX",
    "name": "Luxembourg Airport",
    "city": "Luxembourg",
    "state": "Luxemburg",
    "country": "Luxembourg",
    "tz": "Europe/Luxembourg",
    "type": "Airports",
    "direct_flights": "119",
    "carriers": "29",
    "stateCode": "",
    "countryCode": "LU",
    "location": {
      "type": "Point",
      "coordinates": [
        6.20685,
        49.6269
      ]
    }
  },
  {
    "code": "ATH",
    "name": "Eleftherios Venizelos International Airport",
    "city": "Athens",
    "state": "Attiki",
    "country": "Greece",
    "tz": "Europe/Athens",
    "type": "Airports",
    "direct_flights": "117",
    "carriers": "81",
    "stateCode": "",
    "countryCode": "GR",
    "location": {
      "type": "Point",
      "coordinates": [
        23.7235,
        37.8937
      ]
    }
  },
  {
    "code": "OSL",
    "name": "Oslo Gardermoen Airport",
    "city": "Oslo",
    "state": "Akershus Fylke",
    "country": "Norway",
    "tz": "Europe/Oslo",
    "type": "Airports",
    "direct_flights": "116",
    "carriers": "59",
    "stateCode": "",
    "countryCode": "NO",
    "location": {
      "type": "Point",
      "coordinates": [
        11.1005,
        60.1947
      ]
    },
    "macCode": "OSL"
  },
  {
    "code": "STR",
    "name": "Stuttgart Airport",
    "city": "Stuttgart",
    "state": "Baden-Wurttemberg",
    "country": "Germany",
    "tz": "Europe/Berlin",
    "type": "Airports",
    "direct_flights": "116",
    "carriers": "51",
    "stateCode": "",
    "countryCode": "DE",
    "location": {
      "type": "Point",
      "coordinates": [
        9.19298,
        48.6895
      ]
    },
    "macCode": "STR"
  },
  {
    "code": "CVG",
    "name": "Greater Cincinnati International Airport",
    "city": "Covington",
    "state": "Ohio",
    "country": "United States",
    "tz": "America/New_York",
    "type": "Airports",
    "direct_flights": "115",
    "carriers": "39",
    "stateCode": "OH",
    "countryCode": "US",
    "location": {
      "type": "Point",
      "coordinates": [
        -84.6625,
        39.0571
      ]
    },
    "macCode": "CVG"
  },
  {
    "code": "BOS",
    "name": "Gen E L Logan International Airport",
    "city": "Boston",
    "state": "Massachusetts",
    "country": "United States",
    "tz": "America/New_York",
    "type": "Airports",
    "direct_flights": "113",
    "carriers": "68",
    "stateCode": "MA",
    "countryCode": "US",
    "location": {
      "type": "Point",
      "coordinates": [
        -71.0281,
        42.3717
      ]
    }
  },
  {
    "code": "HAM",
    "name": "Hamburg Airport",
    "city": "Hamburg",
    "state": "Hamburg",
    "country": "Germany",
    "tz": "Europe/Berlin",
    "type": "Airports",
    "direct_flights": "112",
    "carriers": "75",
    "stateCode": "",
    "countryCode": "DE",
    "location": {
      "type": "Point",
      "coordinates": [
        10.0042,
        53.6321
      ]
    }
  },
  {
    "code": "CAN",
    "name": "Baiyun Airport",
    "city": "Guangzhou",
    "state": "Guangdong",
    "country": "China",
    "tz": "Asia/Chongqing",
    "type": "Airports",
    "direct_flights": "111",
    "carriers": "49",
    "stateCode": "",
    "countryCode": "CN",
    "location": {
      "type": "Point",
      "coordinates": [
        113.299,
        23.3925
      ]
    }
  },
  {
    "code": "PMI",
    "name": "Palma de Mallorca Airport",
    "city": "Palma Mallorca",
    "state": "Balearic Islands",
    "country": "Spain",
    "tz": "Europe/Madrid",
    "type": "Airports",
    "direct_flights": "109",
    "carriers": "57",
    "stateCode": "",
    "countryCode": "ES",
    "location": {
      "type": "Point",
      "coordinates": [
        2.73188,
        39.5495
      ]
    }
  },
  {
    "code": "SEA",
    "name": "Tacoma International Airport",
    "city": "Seattle",
    "state": "Washington",
    "country": "United States",
    "tz": "America/Los_Angeles",
    "type": "Airports",
    "direct_flights": "109",
    "carriers": "59",
    "stateCode": "WA",
    "countryCode": "US",
    "location": {
      "type": "Point",
      "coordinates": [
        -122.296,
        47.4405
      ]
    },
    "macCode": "SEA"
  },
  {
    "code": "FLL",
    "name": "Fort Lauderdale Hollywood International Airport",
    "city": "Fort Lauderdale",
    "state": "Florida",
    "country": "United States",
    "tz": "America/New_York",
    "type": "Airports",
    "direct_flights": "108",
    "carriers": "46",
    "stateCode": "FL",
    "countryCode": "US",
    "location": {
      "type": "Point",
      "coordinates": [
        -80.1354,
        26.0722
      ]
    }
  },
  {
    "code": "PHX",
    "name": "Sky Harbor International Airport",
    "city": "Phoenix",
    "state": "Arizona",
    "country": "United States",
    "tz": "America/Phoenix",
    "type": "Airports",
    "direct_flights": "108",
    "carriers": "51",
    "stateCode": "AZ",
    "countryCode": "US",
    "location": {
      "type": "Point",
      "coordinates": [
        -112.03,
        33.4376
      ]
    }
  },
  {
    "code": "SIN",
    "name": "Singapore Changi Airport",
    "city": "Singapore",
    "state": "South East",
    "country": "Singapore",
    "tz": "Asia/Singapore",
    "type": "Airports",
    "direct_flights": "108",
    "carriers": "80",
    "stateCode": "",
    "countryCode": "SG",
    "location": {
      "type": "Point",
      "coordinates": [
        103.991,
        1.3578
      ]
    }
  },
  {
    "code": "AGP",
    "name": "Malaga Airport",
    "city": "Malaga",
    "state": "Andalucia",
    "country": "Spain",
    "tz": "Europe/Madrid",
    "type": "Airports",
    "direct_flights": "106",
    "carriers": "59",
    "stateCode": "",
    "countryCode": "ES",
    "location": {
      "type": "Point",
      "coordinates": [
        -4.49298,
        36.6749
      ]
    }
  },
  {
    "code": "JED",
    "name": "King Abdul Aziz International Airport",
    "city": "Jeddah",
    "state": "Makka",
    "country": "Saudi Arabia",
    "tz": "Asia/Riyadh",
    "type": "Airports",
    "direct_flights": "106",
    "carriers": "54",
    "stateCode": "",
    "countryCode": "SA",
    "location": {
      "type": "Point",
      "coordinates": [
        39.1386,
        21.706
      ]
    }
  },
  {
    "code": "MCO",
    "name": "Orlando International Airport",
    "city": "Orlando",
    "state": "Florida",
    "country": "United States",
    "tz": "America/New_York",
    "type": "Airports",
    "direct_flights": "106",
    "carriers": "63",
    "stateCode": "FL",
    "countryCode": "US",
    "location": {
      "type": "Point",
      "coordinates": [
        -81.3115,
        28.4418
      ]
    },
    "macCode": "ORL"
  },
  {
    "code": "HEL",
    "name": "Helsinki Vantaa Airport",
    "city": "Helsinki",
    "state": "Southern Finland",
    "country": "Finland",
    "tz": "Europe/Helsinki",
    "type": "Airports",
    "direct_flights": "104",
    "carriers": "53",
    "stateCode": "",
    "countryCode": "FI",
    "location": {
      "type": "Point",
      "coordinates": [
        24.9688,
        60.3243
      ]
    }
  },
  {
    "code": "SLC",
    "name": "Salt Lake City International Airport",
    "city": "Salt Lake City",
    "state": "Utah",
    "country": "United States",
    "tz": "America/Denver",
    "type": "Airports",
    "direct_flights": "104",
    "carriers": "38",
    "stateCode": "UT",
    "countryCode": "US",
    "location": {
      "type": "Point",
      "coordinates": [
        -111.982,
        40.7862
      ]
    }
  },
  {
    "code": "YUL",
    "name": "Aéroport International Pierre-Elliott-Trudeau d",
    "city": "Montreal",
    "state": "Quebec",
    "country": "Canada",
    "tz": "America/Toronto",
    "type": "Airports",
    "direct_flights": "104",
    "carriers": "57",
    "stateCode": "PQ",
    "countryCode": "CA",
    "location": {
      "type": "Point",
      "coordinates": [
        -73.7473,
        45.4562
      ]
    },
    "macCode": "YMQ"
  },
  {
    "code": "BHX",
    "name": "Birmingham International Airport",
    "city": "Birmingham",
    "state": "England",
    "country": "United Kingdom",
    "tz": "Europe/London",
    "type": "Airports",
    "direct_flights": "103",
    "carriers": "45",
    "stateCode": "",
    "countryCode": "GB",
    "location": {
      "type": "Point",
      "coordinates": [
        -1.73847,
        52.4531
      ]
    }
  },
  {
    "code": "BUD",
    "name": "Ferihegy Airport",
    "city": "Budapest",
    "state": "Budapest",
    "country": "Hungary",
    "tz": "Europe/Budapest",
    "type": "Airports",
    "direct_flights": "102",
    "carriers": "64",
    "stateCode": "",
    "countryCode": "HU",
    "location": {
      "type": "Point",
      "coordinates": [
        19.2195,
        47.4453
      ]
    }
  },
  {
    "code": "CLE",
    "name": "Hopkins International Airport",
    "city": "Cleveland",
    "state": "Ohio",
    "country": "United States",
    "tz": "America/New_York",
    "type": "Airports",
    "direct_flights": "102",
    "carriers": "44",
    "stateCode": "OH",
    "countryCode": "US",
    "location": {
      "type": "Point",
      "coordinates": [
        -81.8339,
        41.4115
      ]
    }
  },
  {
    "code": "WAW",
    "name": "Okecie International Airport",
    "city": "Warsaw",
    "state": "Mazowieckie",
    "country": "Poland",
    "tz": "Europe/Warsaw",
    "type": "Airports",
    "direct_flights": "102",
    "carriers": "60",
    "stateCode": "",
    "countryCode": "PL",
    "location": {
      "type": "Point",
      "coordinates": [
        20.9725,
        52.17
      ]
    }
  },
  {
    "code": "KUL",
    "name": "Kuala Lumpur International Airport",
    "city": "Kuala Lumpur",
    "state": "Putrajaya",
    "country": "Malaysia",
    "tz": "Asia/Kuala_Lumpur",
    "type": "Airports",
    "direct_flights": "101",
    "carriers": "68",
    "stateCode": "",
    "countryCode": "MY",
    "location": {
      "type": "Point",
      "coordinates": [
        101.689,
        2.77859
      ]
    },
    "macCode": "KUL"
  },
  {
    "code": "TXL",
    "name": "Berlin-Tegel International Airport",
    "city": "Berlin",
    "state": "Berlin",
    "country": "Germany",
    "tz": "Europe/Berlin",
    "type": "Airports",
    "direct_flights": "101",
    "carriers": "70",
    "stateCode": "",
    "countryCode": "DE",
    "location": {
      "type": "Point",
      "coordinates": [
        13.289,
        52.5548
      ]
    },
    "macCode": "BER"
  },
  {
    "code": "LGG",
    "name": "Bierset Airport",
    "city": "Liege",
    "state": "Liege",
    "country": "Belgium",
    "tz": "Europe/Brussels",
    "type": "Airports",
    "direct_flights": "99",
    "carriers": "7",
    "stateCode": "",
    "countryCode": "BE",
    "location": {
      "type": "Point",
      "coordinates": [
        5.44035,
        50.64
      ]
    }
  },
  {
    "code": "MEX",
    "name": "Lic Benito Juarez International Airport",
    "city": "Mexico City",
    "state": "Distrito Federal",
    "country": "Mexico",
    "tz": "America/Mexico_City",
    "type": "Airports",
    "direct_flights": "98",
    "carriers": "42",
    "stateCode": "",
    "countryCode": "MX",
    "location": {
      "type": "Point",
      "coordinates": [
        -99.0742,
        19.4344
      ]
    }
  },
  {
    "code": "NCE",
    "name": "Nice-Cote d'Azur Airport",
    "city": "Nice",
    "state": "Provence-alpes-cote d'Azur",
    "country": "France",
    "tz": "Europe/Paris",
    "type": "Airports",
    "direct_flights": "97",
    "carriers": "67",
    "stateCode": "",
    "countryCode": "FR",
    "location": {
      "type": "Point",
      "coordinates": [
        7.21286,
        43.6638
      ]
    }
  },
  {
    "code": "NRT",
    "name": "Narita International Airport",
    "city": "Tokyo",
    "state": "Chiba Prefecture",
    "country": "Japan",
    "tz": "Asia/Tokyo",
    "type": "Airports",
    "direct_flights": "97",
    "carriers": "63",
    "stateCode": "",
    "countryCode": "JP",
    "location": {
      "type": "Point",
      "coordinates": [
        140.389,
        35.7491
      ]
    },
    "macCode": "TYO"
  },
  {
    "code": "MEM",
    "name": "Memphis International Airport",
    "city": "Memphis",
    "state": "Tennessee",
    "country": "United States",
    "tz": "America/Chicago",
    "type": "Airports",
    "direct_flights": "96",
    "carriers": "28",
    "stateCode": "TN",
    "countryCode": "US",
    "location": {
      "type": "Point",
      "coordinates": [
        -89.9823,
        35.047
      ]
    }
  },
  {
    "code": "DEL",
    "name": "Indira Gandhi International Airport",
    "city": "New Delhi",
    "state": "Madhya Pradesh",
    "country": "India",
    "tz": "Asia/Kolkata",
    "type": "Airports",
    "direct_flights": "95",
    "carriers": "70",
    "stateCode": "",
    "countryCode": "IN",
    "location": {
      "type": "Point",
      "coordinates": [
        77.1027,
        28.5603
      ]
    }
  },
  {
    "code": "CAI",
    "name": "Cairo International Airport",
    "city": "Cairo",
    "state": "Al Qahirah",
    "country": "Egypt",
    "tz": "Africa/Cairo",
    "type": "Airports",
    "direct_flights": "92",
    "carriers": "52",
    "stateCode": "",
    "countryCode": "EG",
    "location": {
      "type": "Point",
      "coordinates": [
        31.4078,
        30.1206
      ]
    }
  },
  {
    "code": "LIS",
    "name": "Lisbon Airport",
    "city": "Lisbon",
    "state": "Lisbon",
    "country": "Portugal",
    "tz": "Europe/Lisbon",
    "type": "Airports",
    "direct_flights": "92",
    "carriers": "57",
    "stateCode": "",
    "countryCode": "PT",
    "location": {
      "type": "Point",
      "coordinates": [
        -9.13775,
        38.7701
      ]
    }
  },
  {
    "code": "YVR",
    "name": "Vancouver International Airport",
    "city": "Vancouver",
    "state": "British Columbia",
    "country": "Canada",
    "tz": "America/Vancouver",
    "type": "Airports",
    "direct_flights": "92",
    "carriers": "54",
    "stateCode": "BC",
    "countryCode": "CA",
    "location": {
      "type": "Point",
      "coordinates": [
        -123.172,
        49.1931
      ]
    }
  },
  {
    "code": "ALC",
    "name": "Alicante Airport",
    "city": "Alicante",
    "state": "Valencia",
    "country": "Spain",
    "tz": "Europe/Madrid",
    "type": "Airports",
    "direct_flights": "91",
    "carriers": "37",
    "stateCode": "",
    "countryCode": "ES",
    "location": {
      "type": "Point",
      "coordinates": [
        -0.5576,
        38.2844
      ]
    }
  },
  {
    "code": "JNB",
    "name": "OR Tambo International Airport",
    "city": "Johannesburg",
    "state": "Gauteng",
    "country": "South Africa",
    "tz": "Africa/Johannesburg",
    "type": "Airports",
    "direct_flights": "89",
    "carriers": "63",
    "stateCode": "",
    "countryCode": "ZA",
    "location": {
      "type": "Point",
      "coordinates": [
        28.2467,
        -26.1219
      ]
    }
  },
  {
    "code": "LYS",
    "name": "Lyon Airport",
    "city": "Lyon",
    "state": "Rhone-Alpes",
    "country": "France",
    "tz": "Europe/Paris",
    "type": "Airports",
    "direct_flights": "89",
    "carriers": "54",
    "stateCode": "",
    "countryCode": "FR",
    "location": {
      "type": "Point",
      "coordinates": [
        5.08245,
        45.7198
      ]
    },
    "macCode": "LYS"
  },
  {
    "code": "DOH",
    "name": "Doha International Airport",
    "city": "Doha",
    "state": "Doha",
    "country": "Qatar",
    "tz": "Asia/Qatar",
    "type": "Airports",
    "direct_flights": "87",
    "carriers": "43",
    "stateCode": "",
    "countryCode": "QA",
    "location": {
      "type": "Point",
      "coordinates": [
        51.5658,
        25.2592
      ]
    }
  },
  {
    "code": "EDI",
    "name": "Edinburgh International Airport",
    "city": "Edinburgh",
    "state": "Scotland",
    "country": "United Kingdom",
    "tz": "Europe/London",
    "type": "Airports",
    "direct_flights": "87",
    "carriers": "49",
    "stateCode": "",
    "countryCode": "GB",
    "location": {
      "type": "Point",
      "coordinates": [
        -3.36431,
        55.9486
      ]
    }
  },
  {
    "code": "TLV",
    "name": "Ben Gurion Airport",
    "city": "Tel Aviv Yafo",
    "state": "HaMerkaz",
    "country": "Israel",
    "tz": "Asia/Jerusalem",
    "type": "Airports",
    "direct_flights": "87",
    "carriers": "56",
    "stateCode": "",
    "countryCode": "IL",
    "location": {
      "type": "Point",
      "coordinates": [
        34.8861,
        32.0117
      ]
    }
  },
  {
    "code": "BOM",
    "name": "Chhatrapati Shivaji International Airport",
    "city": "Mumbai",
    "state": "Maharashtra",
    "country": "India",
    "tz": "Asia/Kolkata",
    "type": "Airports",
    "direct_flights": "86",
    "carriers": "60",
    "stateCode": "",
    "countryCode": "IN",
    "location": {
      "type": "Point",
      "coordinates": [
        72.8654,
        19.0932
      ]
    }
  },
  {
    "code": "HAJ",
    "name": "Hannover International Airport",
    "city": "Hanover",
    "state": "Lower Saxony",
    "country": "Germany",
    "tz": "Europe/Berlin",
    "type": "Airports",
    "direct_flights": "86",
    "carriers": "46",
    "stateCode": "",
    "countryCode": "DE",
    "location": {
      "type": "Point",
      "coordinates": [
        9.69459,
        52.4586
      ]
    }
  },
  {
    "code": "SXF",
    "name": "Berlin-Schonefeld International Airport",
    "city": "Berlin",
    "state": "Bundesland Brandenburg",
    "country": "Germany",
    "tz": "Europe/Berlin",
    "type": "Airports",
    "direct_flights": "85",
    "carriers": "21",
    "stateCode": "",
    "countryCode": "DE",
    "location": {
      "type": "Point",
      "coordinates": [
        13.5188,
        52.3886
      ]
    },
    "macCode": "BER"
  },
  {
    "code": "SYD",
    "name": "Kingsford Smith Airport",
    "city": "Sydney",
    "state": "New South Wales",
    "country": "Australia",
    "tz": "Australia/Sydney",
    "type": "Airports",
    "direct_flights": "84",
    "carriers": "55",
    "stateCode": "NS",
    "countryCode": "AU",
    "location": {
      "type": "Point",
      "coordinates": [
        151.168,
        -33.9344
      ]
    }
  },
  {
    "code": "KBP",
    "name": "Borispol Airport",
    "city": "Kiev",
    "state": "Kyyivs´ka Oblast´",
    "country": "Ukraine",
    "tz": "Europe/Kiev",
    "type": "Airports",
    "direct_flights": "83",
    "carriers": "64",
    "stateCode": "",
    "countryCode": "UA",
    "location": {
      "type": "Point",
      "coordinates": [
        30.9025,
        50.3405
      ]
    },
    "macCode": "IEV"
  },
  {
    "code": "LGA",
    "name": "LaGuardia Airport",
    "city": "New York",
    "state": "New York",
    "country": "United States",
    "tz": "America/New_York",
    "type": "Airports",
    "direct_flights": "82",
    "carriers": "30",
    "stateCode": "NY",
    "countryCode": "US",
    "location": {
      "type": "Point",
      "coordinates": [
        -73.8756,
        40.7731
      ]
    },
    "macCode": "NYC"
  },
  {
    "code": "MRS",
    "name": "Marignane Airport",
    "city": "Marseille",
    "state": "Provence-alpes-cote d'Azur",
    "country": "France",
    "tz": "Europe/Paris",
    "type": "Airports",
    "direct_flights": "81",
    "carriers": "51",
    "stateCode": "",
    "countryCode": "FR",
    "location": {
      "type": "Point",
      "coordinates": [
        5.22087,
        43.4411
      ]
    }
  },
  {
    "code": "SZX",
    "name": "Shenzhen Airport",
    "city": "Shenzhen",
    "state": "Guangdong",
    "country": "China",
    "tz": "Asia/Shanghai",
    "type": "Airports",
    "direct_flights": "81",
    "carriers": "31",
    "stateCode": "",
    "countryCode": "CN",
    "location": {
      "type": "Point",
      "coordinates": [
        113.967,
        22.5333
      ]
    }
  },
  {
    "code": "BWI",
    "name": "Baltimore-Washington International Thurgood Mars",
    "city": "Baltimore",
    "state": "Maryland",
    "country": "United States",
    "tz": "America/New_York",
    "type": "Airports",
    "direct_flights": "79",
    "carriers": "39",
    "stateCode": "MD",
    "countryCode": "US",
    "location": {
      "type": "Point",
      "coordinates": [
        -76.6745,
        39.1841
      ]
    },
    "macCode": "WAS"
  },
  {
    "code": "VKO",
    "name": "Ynukovo Airport",
    "city": "Moscow",
    "state": "Moskovskaya Oblast",
    "country": "Russia",
    "tz": "Europe/Moscow",
    "type": "Airports",
    "direct_flights": "79",
    "carriers": "24",
    "stateCode": "",
    "countryCode": "RU",
    "location": {
      "type": "Point",
      "coordinates": [
        37.285,
        55.5978
      ]
    },
    "macCode": "MOW"
  },
  {
    "code": "KIX",
    "name": "Kansai International Airport",
    "city": "Osaka",
    "state": "Osaka Prefecture",
    "country": "Japan",
    "tz": "Asia/Tokyo",
    "type": "Airports",
    "direct_flights": "78",
    "carriers": "61",
    "stateCode": "",
    "countryCode": "JP",
    "location": {
      "type": "Point",
      "coordinates": [
        135.244,
        34.4295
      ]
    },
    "macCode": "OSA"
  },
  {
    "code": "LTN",
    "name": "London Luton Airport",
    "city": "London",
    "state": "England",
    "country": "United Kingdom",
    "tz": "Europe/London",
    "type": "Airports",
    "direct_flights": "78",
    "carriers": "11",
    "stateCode": "",
    "countryCode": "GB",
    "location": {
      "type": "Point",
      "coordinates": [
        -0.37548,
        51.8796
      ]
    },
    "macCode": "LON"
  },
  {
    "code": "STL",
    "name": "Lambert St Louis International Airport",
    "city": "St Louis",
    "state": "Missouri",
    "country": "United States",
    "tz": "America/Chicago",
    "type": "Airports",
    "direct_flights": "78",
    "carriers": "46",
    "stateCode": "MO",
    "countryCode": "US",
    "location": {
      "type": "Point",
      "coordinates": [
        -90.3647,
        38.7414
      ]
    }
  },
  {
    "code": "DCA",
    "name": "Washington National Airport",
    "city": "Washington",
    "state": "Virginia",
    "country": "United States",
    "tz": "America/New_York",
    "type": "Airports",
    "direct_flights": "77",
    "carriers": "42",
    "stateCode": "DC",
    "countryCode": "US",
    "location": {
      "type": "Point",
      "coordinates": [
        -77.0438,
        38.849
      ]
    },
    "macCode": "WAS"
  },
  {
    "code": "MNL",
    "name": "Ninoy Aquino International Airport",
    "city": "Manila",
    "state": "National Capital Region",
    "country": "Philippines",
    "tz": "Asia/Manila",
    "type": "Airports",
    "direct_flights": "77",
    "carriers": "35",
    "stateCode": "",
    "countryCode": "PH",
    "location": {
      "type": "Point",
      "coordinates": [
        121.016,
        14.5114
      ]
    }
  },
  {
    "code": "AUH",
    "name": "Abu Dhabi International Airport",
    "city": "Abu Dhabi",
    "state": "Abu Dhabi",
    "country": "United Arab Emirates",
    "tz": "Asia/Dubai",
    "type": "Airports",
    "direct_flights": "76",
    "carriers": "45",
    "stateCode": "",
    "countryCode": "AE",
    "location": {
      "type": "Point",
      "coordinates": [
        54.6489,
        24.4331
      ]
    },
    "macCode": "AUH"
  },
  {
    "code": "RIX",
    "name": "Riga Airport",
    "city": "Riga",
    "state": "Rigas Rajons",
    "country": "Latvia",
    "tz": "Europe/Riga",
    "type": "Airports",
    "direct_flights": "76",
    "carriers": "36",
    "stateCode": "",
    "countryCode": "LV",
    "location": {
      "type": "Point",
      "coordinates": [
        23.9717,
        56.9231
      ]
    }
  },
  {
    "code": "TFS",
    "name": "Sur-Reina Sofia Airport",
    "city": "Tenerife",
    "state": "Canary Islands",
    "country": "Spain",
    "tz": "Atlantic/Canary",
    "type": "Airports",
    "direct_flights": "76",
    "carriers": "33",
    "stateCode": "",
    "countryCode": "ES",
    "location": {
      "type": "Point",
      "coordinates": [
        -16.5705,
        28.0474
      ]
    },
    "macCode": "TCI"
  },
  {
    "code": "VLC",
    "name": "Valencia Airport",
    "city": "Manises",
    "state": "Valencia",
    "country": "Spain",
    "tz": "Europe/Madrid",
    "type": "Airports",
    "direct_flights": "75",
    "carriers": "36",
    "stateCode": "",
    "countryCode": "ES",
    "location": {
      "type": "Point",
      "coordinates": [
        -0.47617,
        39.4929
      ]
    }
  },
  {
    "code": "CMN",
    "name": "Mohamed V Airport",
    "city": "Casablanca",
    "state": "Casablanca",
    "country": "Morocco",
    "tz": "Africa/Casablanca",
    "type": "Airports",
    "direct_flights": "74",
    "carriers": "31",
    "stateCode": "",
    "countryCode": "MA",
    "location": {
      "type": "Point",
      "coordinates": [
        -7.5817,
        33.365
      ]
    },
    "macCode": "CAS"
  },
  {
    "code": "PDX",
    "name": "Portland International Airport",
    "city": "Portland",
    "state": "Oregon",
    "country": "United States",
    "tz": "America/Los_Angeles",
    "type": "Airports",
    "direct_flights": "74",
    "carriers": "43",
    "stateCode": "OR",
    "countryCode": "US",
    "location": {
      "type": "Point",
      "coordinates": [
        -122.587,
        45.5867
      ]
    }
  },
  {
    "code": "TPA",
    "name": "Tampa International Airport",
    "city": "Tampa",
    "state": "Florida",
    "country": "United States",
    "tz": "America/New_York",
    "type": "Airports",
    "direct_flights": "74",
    "carriers": "48",
    "stateCode": "FL",
    "countryCode": "US",
    "location": {
      "type": "Point",
      "coordinates": [
        -82.5356,
        27.9744
      ]
    },
    "macCode": "TPA"
  },
  {
    "code": "BRS",
    "name": "Bristol International Airport",
    "city": "Bristol",
    "state": "England",
    "country": "United Kingdom",
    "tz": "Europe/London",
    "type": "Airports",
    "direct_flights": "73",
    "carriers": "22",
    "stateCode": "",
    "countryCode": "GB",
    "location": {
      "type": "Point",
      "coordinates": [
        -2.70526,
        51.3848
      ]
    }
  },
  {
    "code": "LPA",
    "name": "Las Palmas Airport",
    "city": "Las Palmas",
    "state": "Canary Islands",
    "country": "Spain",
    "tz": "Atlantic/Canary",
    "type": "Airports",
    "direct_flights": "71",
    "carriers": "43",
    "stateCode": "",
    "countryCode": "ES",
    "location": {
      "type": "Point",
      "coordinates": [
        -15.3828,
        27.9372
      ]
    }
  },
  {
    "code": "RUH",
    "name": "King Khalid International Airport",
    "city": "Riyadh",
    "state": "Ar Riyad",
    "country": "Saudi Arabia",
    "tz": "Asia/Riyadh",
    "type": "Airports",
    "direct_flights": "71",
    "carriers": "35",
    "stateCode": "",
    "countryCode": "SA",
    "location": {
      "type": "Point",
      "coordinates": [
        46.7078,
        24.9625
      ]
    }
  },
  {
    "code": "BGY",
    "name": "Orio Al Serio Airport",
    "city": "Milan",
    "state": "Lombardy",
    "country": "Italy",
    "tz": "Europe/Rome",
    "type": "Airports",
    "direct_flights": "70",
    "carriers": "19",
    "stateCode": "",
    "countryCode": "IT",
    "location": {
      "type": "Point",
      "coordinates": [
        9.699,
        45.6664
      ]
    },
    "macCode": "MIL"
  },
  {
    "code": "VCE",
    "name": "Marco Polo International Airport",
    "city": "Venice",
    "state": "Veneto",
    "country": "Italy",
    "tz": "Europe/Rome",
    "type": "Airports",
    "direct_flights": "70",
    "carriers": "51",
    "stateCode": "",
    "countryCode": "IT",
    "location": {
      "type": "Point",
      "coordinates": [
        12.3433,
        45.505
      ]
    }
  },
  {
    "code": "NUE",
    "name": "Nurnberg Airport",
    "city": "Nürnberg",
    "state": "Bavaria",
    "country": "Germany",
    "tz": "Europe/Berlin",
    "type": "Airports",
    "direct_flights": "69",
    "carriers": "34",
    "stateCode": "",
    "countryCode": "DE",
    "location": {
      "type": "Point",
      "coordinates": [
        11.0785,
        49.4946
      ]
    }
  },
  {
    "code": "CUN",
    "name": "Cancun Airport",
    "city": "Cancun",
    "state": "Quintana Roo",
    "country": "Mexico",
    "tz": "America/Mexico_City",
    "type": "Airports",
    "direct_flights": "68",
    "carriers": "47",
    "stateCode": "",
    "countryCode": "MX",
    "location": {
      "type": "Point",
      "coordinates": [
        -86.8744,
        21.0406
      ]
    }
  },
  {
    "code": "BSL",
    "name": "Euroairport Basel-Mulhouse-Freiburg",
    "city": "Mulhouse",
    "state": "Alsace",
    "country": "France",
    "tz": "Europe/Zurich",
    "type": "Airports",
    "direct_flights": "67",
    "carriers": "32",
    "stateCode": "",
    "countryCode": "CH",
    "location": {
      "type": "Point",
      "coordinates": [
        7.532,
        47.5998
      ]
    },
    "macCode": "EAP"
  },
  {
    "code": "EMA",
    "name": "East Midlands International Airport",
    "city": "Nottingham",
    "state": "England",
    "country": "United Kingdom",
    "tz": "Europe/London",
    "type": "Airports",
    "direct_flights": "67",
    "carriers": "16",
    "stateCode": "",
    "countryCode": "GB",
    "location": {
      "type": "Point",
      "coordinates": [
        -1.33094,
        52.8258
      ]
    },
    "macCode": "NQT"
  },
  {
    "code": "GLA",
    "name": "Glasgow International Airport",
    "city": "Glasgow",
    "state": "Scotland",
    "country": "United Kingdom",
    "tz": "Europe/London",
    "type": "Airports",
    "direct_flights": "67",
    "carriers": "44",
    "stateCode": "",
    "countryCode": "GB",
    "location": {
      "type": "Point",
      "coordinates": [
        -4.43234,
        55.8646
      ]
    }
  },
  {
    "code": "KWI",
    "name": "Kuwait International Airport",
    "city": "Kuwait City",
    "state": "Al Farwaniyah",
    "country": "Kuwait",
    "tz": "Asia/Kuwait",
    "type": "Airports",
    "direct_flights": "67",
    "carriers": "52",
    "stateCode": "",
    "countryCode": "KW",
    "location": {
      "type": "Point",
      "coordinates": [
        47.9748,
        29.2442
      ]
    }
  },
  {
    "code": "SHJ",
    "name": "Sharjah International Airport",
    "city": "Sharjah",
    "state": "Ajman",
    "country": "United Arab Emirates",
    "tz": "Asia/Dubai",
    "type": "Airports",
    "direct_flights": "66",
    "carriers": "25",
    "stateCode": "",
    "countryCode": "AE",
    "location": {
      "type": "Point",
      "coordinates": [
        55.5178,
        25.3297
      ]
    }
  },
  {
    "code": "BOG",
    "name": "Eldorado International Airport",
    "city": "Bogota",
    "state": "Distrito Especial",
    "country": "Colombia",
    "tz": "America/Bogota",
    "type": "Airports",
    "direct_flights": "64",
    "carriers": "30",
    "stateCode": "",
    "countryCode": "CO",
    "location": {
      "type": "Point",
      "coordinates": [
        -74.1435,
        4.69895
      ]
    }
  },
  {
    "code": "MCI",
    "name": "Kansas City International Airport",
    "city": "Kansas City",
    "state": "Missouri",
    "country": "United States",
    "tz": "America/Chicago",
    "type": "Airports",
    "direct_flights": "64",
    "carriers": "41",
    "stateCode": "MO",
    "countryCode": "US",
    "location": {
      "type": "Point",
      "coordinates": [
        -94.7171,
        39.2992
      ]
    },
    "macCode": "MKC"
  },
  {
    "code": "YYC",
    "name": "Calgary International Airport",
    "city": "Calgary",
    "state": "Alberta",
    "country": "Canada",
    "tz": "America/Edmonton",
    "type": "Airports",
    "direct_flights": "64",
    "carriers": "33",
    "stateCode": "AB",
    "countryCode": "CA",
    "location": {
      "type": "Point",
      "coordinates": [
        -114.007,
        51.1343
      ]
    }
  },
  {
    "code": "GRO",
    "name": "Gerona Airport",
    "city": "Gerona",
    "state": "Catalonia",
    "country": "Spain",
    "tz": "Europe/Madrid",
    "type": "Airports",
    "direct_flights": "63",
    "carriers": "6",
    "stateCode": "",
    "countryCode": "ES",
    "location": {
      "type": "Point",
      "coordinates": [
        2.7646,
        41.8992
      ]
    }
  },
  {
    "code": "GRU",
    "name": "Governador Andre Franco Montoro International Ai",
    "city": "Sao Paulo",
    "state": "Sao Paulo",
    "country": "Brazil",
    "tz": "America/Sao_Paulo",
    "type": "Airports",
    "direct_flights": "63",
    "carriers": "35",
    "stateCode": "",
    "countryCode": "BR",
    "location": {
      "type": "Point",
      "coordinates": [
        -46.4728,
        -23.435
      ]
    },
    "macCode": "SAO"
  },
  {
    "code": "HHN",
    "name": "Frankfurt-Hahn Airport",
    "city": "Frankfurt",
    "state": "Rheinland-Pfalz",
    "country": "Germany",
    "tz": "Europe/Berlin",
    "type": "Airports",
    "direct_flights": "63",
    "carriers": "11",
    "stateCode": "",
    "countryCode": "DE",
    "location": {
      "type": "Point",
      "coordinates": [
        7.26851,
        49.9454
      ]
    }
  },
  {
    "code": "ALG",
    "name": "Houari Boumediene Airport",
    "city": "Algiers",
    "state": "Alger",
    "country": "Algeria",
    "tz": "Africa/Algiers",
    "type": "Airports",
    "direct_flights": "62",
    "carriers": "20",
    "stateCode": "",
    "countryCode": "DZ",
    "location": {
      "type": "Point",
      "coordinates": [
        3.21935,
        36.6993
      ]
    }
  },
  {
    "code": "AMM",
    "name": "Queen Alia International Airport",
    "city": "Amman",
    "state": "'Amman",
    "country": "Jordan",
    "tz": "Asia/Amman",
    "type": "Airports",
    "direct_flights": "62",
    "carriers": "41",
    "stateCode": "",
    "countryCode": "JO",
    "location": {
      "type": "Point",
      "coordinates": [
        35.9936,
        31.7231
      ]
    }
  },
  {
    "code": "ANC",
    "name": "Anchorage International Airport",
    "city": "Anchorage",
    "state": "Alaska",
    "country": "United States",
    "tz": "America/Anchorage",
    "type": "Airports",
    "direct_flights": "62",
    "carriers": "47",
    "stateCode": "AK",
    "countryCode": "US",
    "location": {
      "type": "Point",
      "coordinates": [
        -149.961,
        61.1767
      ]
    }
  },
  {
    "code": "BNE",
    "name": "Brisbane International Airport",
    "city": "Brisbane",
    "state": "Queensland",
    "country": "Australia",
    "tz": "Australia/Brisbane",
    "type": "Airports",
    "direct_flights": "62",
    "carriers": "43",
    "stateCode": "QL",
    "countryCode": "AU",
    "location": {
      "type": "Point",
      "coordinates": [
        153.122,
        -27.3589
      ]
    }
  },
  {
    "code": "CTU",
    "name": "Chengdushuang Liu Airport",
    "city": "Chengdu",
    "state": "Sichuan",
    "country": "China",
    "tz": "Asia/Shanghai",
    "type": "Airports",
    "direct_flights": "62",
    "carriers": "30",
    "stateCode": "",
    "countryCode": "CN",
    "location": {
      "type": "Point",
      "coordinates": [
        103.941,
        30.5775
      ]
    }
  },
  {
    "code": "KMG",
    "name": "Wuchia Pa Airport",
    "city": "Kunming",
    "state": "Yunnan",
    "country": "China",
    "tz": "Asia/Shanghai",
    "type": "Airports",
    "direct_flights": "62",
    "carriers": "27",
    "stateCode": "",
    "countryCode": "CN",
    "location": {
      "type": "Point",
      "coordinates": [
        102.733,
        24.966
      ]
    }
  },
  {
    "code": "TUN",
    "name": "Aeroport Tunis",
    "city": "Tunis",
    "state": "Tunis",
    "country": "Tunisia",
    "tz": "Africa/Tunis",
    "type": "Airports",
    "direct_flights": "62",
    "carriers": "26",
    "stateCode": "",
    "countryCode": "TN",
    "location": {
      "type": "Point",
      "coordinates": [
        10.2348,
        36.8435
      ]
    }
  },
  {
    "code": "LBA",
    "name": "Leeds Bradford Airport",
    "city": "Leeds",
    "state": "England",
    "country": "United Kingdom",
    "tz": "Europe/London",
    "type": "Airports",
    "direct_flights": "61",
    "carriers": "34",
    "stateCode": "",
    "countryCode": "GB",
    "location": {
      "type": "Point",
      "coordinates": [
        -1.66123,
        53.8685
      ]
    }
  },
  {
    "code": "LPL",
    "name": "Liverpool John Lennon Airport",
    "city": "Liverpool",
    "state": "England",
    "country": "United Kingdom",
    "tz": "Europe/London",
    "type": "Airports",
    "direct_flights": "61",
    "carriers": "8",
    "stateCode": "",
    "countryCode": "GB",
    "location": {
      "type": "Point",
      "coordinates": [
        -2.85746,
        53.3371
      ]
    }
  },
  {
    "code": "TAS",
    "name": "Tashkent South Airport",
    "city": "Tashkent",
    "state": "Toshkent",
    "country": "Uzbekistan",
    "tz": "Asia/Samarkand",
    "type": "Airports",
    "direct_flights": "61",
    "carriers": "25",
    "stateCode": "",
    "countryCode": "UZ",
    "location": {
      "type": "Point",
      "coordinates": [
        69.2846,
        41.2552
      ]
    }
  },
  {
    "code": "SHA",
    "name": "Hongqiao Airport",
    "city": "Shanghai",
    "state": "Shanghai",
    "country": "China",
    "tz": "Asia/Shanghai",
    "type": "Airports",
    "direct_flights": "60",
    "carriers": "21",
    "stateCode": "",
    "countryCode": "CN",
    "location": {
      "type": "Point",
      "coordinates": [
        121.34,
        31.1865
      ]
    },
    "macCode": "SHA"
  },
  {
    "code": "SJU",
    "name": "Luis Munoz Marin Airport",
    "city": "San Juan",
    "state": "Puerto Rico",
    "country": "United States",
    "tz": "America/Puerto_Rico",
    "type": "Airports",
    "direct_flights": "60",
    "carriers": "37",
    "stateCode": "PR",
    "countryCode": "US",
    "location": {
      "type": "Point",
      "coordinates": [
        -66.0095,
        18.4367
      ]
    }
  },
  {
    "code": "CCS",
    "name": "Simon Bolivar International Airport",
    "city": "Caracas",
    "state": "Vargas",
    "country": "Venezuela",
    "tz": "America/Caracas",
    "type": "Airports",
    "direct_flights": "59",
    "carriers": "35",
    "stateCode": "",
    "countryCode": "VE",
    "location": {
      "type": "Point",
      "coordinates": [
        -66.9881,
        10.6053
      ]
    }
  },
  {
    "code": "MKE",
    "name": "General Mitchell International Airport",
    "city": "Milwaukee",
    "state": "Wisconsin",
    "country": "United States",
    "tz": "America/Chicago",
    "type": "Airports",
    "direct_flights": "59",
    "carriers": "30",
    "stateCode": "WI",
    "countryCode": "US",
    "location": {
      "type": "Point",
      "coordinates": [
        -87.9051,
        42.9471
      ]
    }
  },
  {
    "code": "FAO",
    "name": "Faro Airport",
    "city": "Faro",
    "state": "Faro",
    "country": "Portugal",
    "tz": "Europe/Lisbon",
    "type": "Airports",
    "direct_flights": "58",
    "carriers": "33",
    "stateCode": "",
    "countryCode": "PT",
    "location": {
      "type": "Point",
      "coordinates": [
        -7.97197,
        37.0154
      ]
    }
  },
  {
    "code": "GYD",
    "name": "Azerbaijan",
    "city": "Baku",
    "state": "Baki",
    "country": "Azerbaijan",
    "tz": "Asia/Baku",
    "type": "Airports",
    "direct_flights": "58",
    "carriers": "35",
    "stateCode": "",
    "countryCode": "AZ",
    "location": {
      "type": "Point",
      "coordinates": [
        49.8028,
        40.3781
      ]
    },
    "macCode": "BAK"
  },
  {
    "code": "IBZ",
    "name": "Ibiza Airport",
    "city": "Ibiza",
    "state": "Balearic Islands",
    "country": "Spain",
    "tz": "Europe/Madrid",
    "type": "Airports",
    "direct_flights": "57",
    "carriers": "30",
    "stateCode": "",
    "countryCode": "ES",
    "location": {
      "type": "Point",
      "coordinates": [
        1.36851,
        38.8755
      ]
    }
  },
  {
    "code": "PSA",
    "name": "Pisa Airport",
    "city": "Pisa",
    "state": "Tuscany",
    "country": "Italy",
    "tz": "Europe/Rome",
    "type": "Airports",
    "direct_flights": "57",
    "carriers": "26",
    "stateCode": "",
    "countryCode": "IT",
    "location": {
      "type": "Point",
      "coordinates": [
        10.3976,
        43.6959
      ]
    }
  },
  {
    "code": "SKG",
    "name": "Thessaloniki Airport",
    "city": "Thessaloniki",
    "state": "Kentriki Makedonia",
    "country": "Greece",
    "tz": "Europe/Athens",
    "type": "Airports",
    "direct_flights": "57",
    "carriers": "34",
    "stateCode": "",
    "countryCode": "GR",
    "location": {
      "type": "Point",
      "coordinates": [
        22.9722,
        40.5208
      ]
    }
  },
  {
    "code": "BAH",
    "name": "Bahrain International Airport",
    "city": "Manama",
    "state": "Al Manamah",
    "country": "Bahrain",
    "tz": "Asia/Bahrain",
    "type": "Airports",
    "direct_flights": "56",
    "carriers": "49",
    "stateCode": "",
    "countryCode": "BH",
    "location": {
      "type": "Point",
      "coordinates": [
        50.6234,
        26.2736
      ]
    }
  },
  {
    "code": "LCA",
    "name": "Larnaca Airport",
    "city": "Larnaca",
    "state": "Rep. Cyprus",
    "country": "Cyprus",
    "tz": "Asia/Nicosia",
    "type": "Airports",
    "direct_flights": "56",
    "carriers": "48",
    "stateCode": "",
    "countryCode": "CY",
    "location": {
      "type": "Point",
      "coordinates": [
        33.6303,
        34.8789
      ]
    }
  },
  {
    "code": "MLA",
    "name": "Luqa Airport",
    "city": "Gudja",
    "state": "South Eastern",
    "country": "Malta",
    "tz": "Europe/Malta",
    "type": "Airports",
    "direct_flights": "56",
    "carriers": "35",
    "stateCode": "",
    "countryCode": "MT",
    "location": {
      "type": "Point",
      "coordinates": [
        14.4781,
        35.8586
      ]
    }
  },
  {
    "code": "NAP",
    "name": "Naples International Airport",
    "city": "Napoli",
    "state": "Campania",
    "country": "Italy",
    "tz": "Europe/Rome",
    "type": "Airports",
    "direct_flights": "56",
    "carriers": "48",
    "stateCode": "",
    "countryCode": "IT",
    "location": {
      "type": "Point",
      "coordinates": [
        14.2815,
        40.8837
      ]
    }
  },
  {
    "code": "NCL",
    "name": "Newcastle International Airport",
    "city": "Newcastle",
    "state": "England",
    "country": "United Kingdom",
    "tz": "Europe/London",
    "type": "Airports",
    "direct_flights": "56",
    "carriers": "33",
    "stateCode": "",
    "countryCode": "GB",
    "location": {
      "type": "Point",
      "coordinates": [
        -1.70962,
        55.0374
      ]
    }
  },
  {
    "code": "TOL",
    "name": "Toledo Express Airport",
    "city": "Toledo",
    "state": "Ohio",
    "country": "United States",
    "tz": "America/New_York",
    "type": "Airports",
    "direct_flights": "56",
    "carriers": "17",
    "stateCode": "OH",
    "countryCode": "US",
    "location": {
      "type": "Point",
      "coordinates": [
        -83.8072,
        41.5923
      ]
    }
  },
  {
    "code": "HND",
    "name": "Tokyo International Airport",
    "city": "Tokyo",
    "state": "Tokyo Prefecture",
    "country": "Japan",
    "tz": "Asia/Tokyo",
    "type": "Airports",
    "direct_flights": "55",
    "carriers": "19",
    "stateCode": "",
    "countryCode": "JP",
    "location": {
      "type": "Point",
      "coordinates": [
        139.771,
        35.5533
      ]
    },
    "macCode": "TYO"
  },
  {
    "code": "MDW",
    "name": "Chicago Midway International Airport",
    "city": "Chicago",
    "state": "Illinois",
    "country": "United States",
    "tz": "America/Chicago",
    "type": "Airports",
    "direct_flights": "55",
    "carriers": "8",
    "stateCode": "IL",
    "countryCode": "US",
    "location": {
      "type": "Point",
      "coordinates": [
        -87.7416,
        41.7875
      ]
    },
    "macCode": "CHI"
  },
  {
    "code": "NBO",
    "name": "Jomo Kenyatta International Airport",
    "city": "Nairobi",
    "state": "Nairobi Area",
    "country": "Kenya",
    "tz": "Africa/Nairobi",
    "type": "Airports",
    "direct_flights": "55",
    "carriers": "42",
    "stateCode": "",
    "countryCode": "KE",
    "location": {
      "type": "Point",
      "coordinates": [
        36.9222,
        -1.31697
      ]
    }
  },
  {
    "code": "NGO",
    "name": "Chubu International Airport",
    "city": "Nagoya",
    "state": "Aichi Prefecture",
    "country": "Japan",
    "tz": "Asia/Tokyo",
    "type": "Airports",
    "direct_flights": "55",
    "carriers": "37",
    "stateCode": "",
    "countryCode": "JP",
    "location": {
      "type": "Point",
      "coordinates": [
        136.811,
        34.8624
      ]
    }
  },
  {
    "code": "THR",
    "name": "Mehrabad International Airport",
    "city": "Tehran",
    "state": "Tehran",
    "country": "Iran",
    "tz": "Asia/Tehran",
    "type": "Airports",
    "direct_flights": "55",
    "carriers": "11",
    "stateCode": "",
    "countryCode": "IR",
    "location": {
      "type": "Point",
      "coordinates": [
        51.3144,
        35.6908
      ]
    },
    "macCode": "THR"
  },
  {
    "code": "XMN",
    "name": "Xiamen Airport",
    "city": "Xiamen",
    "state": "Fujian",
    "country": "China",
    "tz": "Asia/Shanghai",
    "type": "Airports",
    "direct_flights": "55",
    "carriers": "33",
    "stateCode": "",
    "countryCode": "CN",
    "location": {
      "type": "Point",
      "coordinates": [
        118.117,
        24.5333
      ]
    }
  },
  {
    "code": "BNA",
    "name": "Nashville International Airport",
    "city": "Nashville",
    "state": "Tennessee",
    "country": "United States",
    "tz": "America/Chicago",
    "type": "Airports",
    "direct_flights": "53",
    "carriers": "38",
    "stateCode": "TN",
    "countryCode": "US",
    "location": {
      "type": "Point",
      "coordinates": [
        -86.6682,
        36.1342
      ]
    }
  },
  {
    "code": "MEL",
    "name": "Melbourne International Airport",
    "city": "Melbourne",
    "state": "Victoria",
    "country": "Australia",
    "tz": "Australia/Melbourne",
    "type": "Airports",
    "direct_flights": "53",
    "carriers": "44",
    "stateCode": "VI",
    "countryCode": "AU",
    "location": {
      "type": "Point",
      "coordinates": [
        144.844,
        -37.6759
      ]
    },
    "macCode": "MEL"
  },
  {
    "code": "PTY",
    "name": "Tocumen International Airport",
    "city": "Panama City",
    "state": "Panama",
    "country": "Panama",
    "tz": "America/Panama",
    "type": "Airports",
    "direct_flights": "53",
    "carriers": "23",
    "stateCode": "",
    "countryCode": "PA",
    "location": {
      "type": "Point",
      "coordinates": [
        -79.3836,
        9.07
      ]
    }
  },
  {
    "code": "TIP",
    "name": "International",
    "city": "Tripoli",
    "state": "Sawfajjin",
    "country": "Libyan Arab Jamahiriya",
    "tz": "Africa/Tripoli",
    "type": "Airports",
    "direct_flights": "53",
    "carriers": "27",
    "stateCode": "",
    "countryCode": "LY",
    "location": {
      "type": "Point",
      "coordinates": [
        15,
        31
      ]
    }
  },
  {
    "code": "AKL",
    "name": "Auckland International Airport",
    "city": "Auckland",
    "state": "Auckland",
    "country": "New Zealand",
    "tz": "Pacific/Auckland",
    "type": "Airports",
    "direct_flights": "52",
    "carriers": "35",
    "stateCode": "",
    "countryCode": "NZ",
    "location": {
      "type": "Point",
      "coordinates": [
        174.782,
        -37.0085
      ]
    }
  },
  {
    "code": "BLQ",
    "name": "Bologna Airport",
    "city": "Bologna",
    "state": "Emilia Romagna",
    "country": "Italy",
    "tz": "Europe/Rome",
    "type": "Airports",
    "direct_flights": "52",
    "carriers": "39",
    "stateCode": "",
    "countryCode": "IT",
    "location": {
      "type": "Point",
      "coordinates": [
        11.2903,
        44.5345
      ]
    }
  },
  {
    "code": "DAM",
    "name": "Damascus International Airport",
    "city": "Damascus",
    "state": "Rif Dimashq",
    "country": "Syria",
    "tz": "Asia/Damascus",
    "type": "Airports",
    "direct_flights": "52",
    "carriers": "39",
    "stateCode": "",
    "countryCode": "SY",
    "location": {
      "type": "Point",
      "coordinates": [
        36.5178,
        33.4139
      ]
    }
  },
  {
    "code": "OTP",
    "name": "Otopeni Airport",
    "city": "Bucharest",
    "state": "Ilfov",
    "country": "Romania",
    "tz": "Europe/Bucharest",
    "type": "Airports",
    "direct_flights": "52",
    "carriers": "42",
    "stateCode": "",
    "countryCode": "RO",
    "location": {
      "type": "Point",
      "coordinates": [
        26.1029,
        44.5656
      ]
    },
    "macCode": "BUH"
  },
  {
    "code": "TPE",
    "name": "Taiwan Taoyuan International Airport",
    "city": "Taipei",
    "state": "Taiwan Province",
    "country": "Taiwan",
    "tz": "Asia/Taipei",
    "type": "Airports",
    "direct_flights": "52",
    "carriers": "43",
    "stateCode": "",
    "countryCode": "TW",
    "location": {
      "type": "Point",
      "coordinates": [
        121.237,
        25.081
      ]
    },
    "macCode": "TPE"
  },
  {
    "code": "AYT",
    "name": "Antalya Airport",
    "city": "Antalya",
    "state": "Antalya",
    "country": "Turkey",
    "tz": "Europe/Istanbul",
    "type": "Airports",
    "direct_flights": "51",
    "carriers": "24",
    "stateCode": "",
    "countryCode": "TR",
    "location": {
      "type": "Point",
      "coordinates": [
        30.7917,
        36.9022
      ]
    }
  },
  {
    "code": "BEY",
    "name": "Beirut International Airport",
    "city": "Beirut",
    "state": "Jabal Lubnan",
    "country": "Lebanon",
    "tz": "Asia/Beirut",
    "type": "Airports",
    "direct_flights": "51",
    "carriers": "47",
    "stateCode": "",
    "countryCode": "LB",
    "location": {
      "type": "Point",
      "coordinates": [
        35.4925,
        33.825
      ]
    }
  },
  {
    "code": "CGK",
    "name": "Jakarta International Airport",
    "city": "Jakarta",
    "state": "Banten",
    "country": "Indonesia",
    "tz": "Asia/Jakarta",
    "type": "Airports",
    "direct_flights": "51",
    "carriers": "45",
    "stateCode": "",
    "countryCode": "ID",
    "location": {
      "type": "Point",
      "coordinates": [
        106.656,
        -6.11964
      ]
    },
    "macCode": "JKT"
  },
  {
    "code": "NKG",
    "name": "Nanjing Lukou International Airport",
    "city": "Nanjing",
    "state": "Jiangsu",
    "country": "China",
    "tz": "Asia/Shanghai",
    "type": "Airports",
    "direct_flights": "51",
    "carriers": "25",
    "stateCode": "",
    "countryCode": "CN",
    "location": {
      "type": "Point",
      "coordinates": [
        118.8,
        32.0833
      ]
    }
  },
  {
    "code": "OVB",
    "name": "Tolmachevo Airport",
    "city": "Novosibirsk",
    "state": "Novosibirskaya Oblast",
    "country": "Russia",
    "tz": "Asia/Krasnoyarsk",
    "type": "Airports",
    "direct_flights": "51",
    "carriers": "24",
    "stateCode": "",
    "countryCode": "RU",
    "location": {
      "type": "Point",
      "coordinates": [
        82.6508,
        55.0078
      ]
    }
  },
  {
    "code": "SAN",
    "name": "San Diego International Airport",
    "city": "San Diego",
    "state": "California",
    "country": "United States",
    "tz": "America/Los_Angeles",
    "type": "Airports",
    "direct_flights": "51",
    "carriers": "57",
    "stateCode": "CA",
    "countryCode": "US",
    "location": {
      "type": "Point",
      "coordinates": [
        -117.195,
        32.7299
      ]
    }
  },
  {
    "code": "AUS",
    "name": "Austin-Bergstrom International Airport",
    "city": "Austin",
    "state": "Texas",
    "country": "United States",
    "tz": "America/Chicago",
    "type": "Airports",
    "direct_flights": "50",
    "carriers": "37",
    "stateCode": "TX",
    "countryCode": "US",
    "location": {
      "type": "Point",
      "coordinates": [
        -97.6653,
        30.2027
      ]
    }
  },
  {
    "code": "ESB",
    "name": "Esenboga Airport",
    "city": "Ankara",
    "state": "Ankara",
    "country": "Turkey",
    "tz": "Europe/Istanbul",
    "type": "Airports",
    "direct_flights": "50",
    "carriers": "15",
    "stateCode": "",
    "countryCode": "TR",
    "location": {
      "type": "Point",
      "coordinates": [
        32.9961,
        40.1289
      ]
    },
    "macCode": "ANK"
  },
  {
    "code": "HER",
    "name": "Iraklion Airport",
    "city": "Heraklion",
    "state": "Kriti",
    "country": "Greece",
    "tz": "Europe/Athens",
    "type": "Airports",
    "direct_flights": "50",
    "carriers": "28",
    "stateCode": "",
    "countryCode": "GR",
    "location": {
      "type": "Point",
      "coordinates": [
        25.1836,
        35.3397
      ]
    }
  },
  {
    "code": "ACE",
    "name": "Arrecife Airport",
    "city": "Arrecife",
    "state": "Canary Islands",
    "country": "Spain",
    "tz": "Atlantic/Canary",
    "type": "Airports",
    "direct_flights": "49",
    "carriers": "28",
    "stateCode": "",
    "countryCode": "ES",
    "location": {
      "type": "Point",
      "coordinates": [
        -13.6085,
        28.9521
      ]
    }
  },
  {
    "code": "BFS",
    "name": "Aldergrove Airport",
    "city": "Belfast",
    "state": "Northern Ireland",
    "country": "United Kingdom",
    "tz": "Europe/London",
    "type": "Airports",
    "direct_flights": "49",
    "carriers": "14",
    "stateCode": "",
    "countryCode": "GB",
    "location": {
      "type": "Point",
      "coordinates": [
        -6.225,
        54.6542
      ]
    },
    "macCode": "BFS"
  },
  {
    "code": "DLC",
    "name": "Chou Shui Tzu Airport",
    "city": "Dalian",
    "state": "Liaoning",
    "country": "China",
    "tz": "Asia/Shanghai",
    "type": "Airports",
    "direct_flights": "49",
    "carriers": "31",
    "stateCode": "",
    "countryCode": "CN",
    "location": {
      "type": "Point",
      "coordinates": [
        121.543,
        38.9617
      ]
    }
  },
  {
    "code": "NAS",
    "name": "Nassau International Airport",
    "city": "Nassau",
    "state": "New Providence",
    "country": "Bahamas",
    "tz": "America/Nassau",
    "type": "Airports",
    "direct_flights": "49",
    "carriers": "19",
    "stateCode": "",
    "countryCode": "BS",
    "location": {
      "type": "Point",
      "coordinates": [
        -77.4719,
        25.0406
      ]
    }
  },
  {
    "code": "OLB",
    "name": "Olbia Costa Smeralda Airport",
    "city": "Olbia",
    "state": "Sardinia",
    "country": "Italy",
    "tz": "Europe/Rome",
    "type": "Airports",
    "direct_flights": "49",
    "carriers": "24",
    "stateCode": "",
    "countryCode": "IT",
    "location": {
      "type": "Point",
      "coordinates": [
        9.51616,
        40.8994
      ]
    }
  },
  {
    "code": "SOF",
    "name": "Vrazhdebna Airport",
    "city": "Sofia",
    "state": "Sofiya-Grad",
    "country": "Bulgaria",
    "tz": "Europe/Sofia",
    "type": "Airports",
    "direct_flights": "49",
    "carriers": "39",
    "stateCode": "",
    "countryCode": "BG",
    "location": {
      "type": "Point",
      "coordinates": [
        23.4024,
        42.6895
      ]
    }
  },
  {
    "code": "SVX",
    "name": "Koltsovo Airport",
    "city": "Ekaterinburg",
    "state": "Sverdlovskaya Oblast",
    "country": "Russia",
    "tz": "Asia/Yekaterinburg",
    "type": "Airports",
    "direct_flights": "49",
    "carriers": "30",
    "stateCode": "",
    "countryCode": "RU",
    "location": {
      "type": "Point",
      "coordinates": [
        60.7911,
        56.7435
      ]
    }
  },
  {
    "code": "CKG",
    "name": "Chongqing Jiangbei International",
    "city": "Chongqing",
    "state": "Chongqing",
    "country": "China",
    "tz": "Asia/Shanghai",
    "type": "Airports",
    "direct_flights": "48",
    "carriers": "25",
    "stateCode": "",
    "countryCode": "CN",
    "location": {
      "type": "Point",
      "coordinates": [
        106.5,
        29.5833
      ]
    }
  },
  {
    "code": "OPO",
    "name": "Porto Airport",
    "city": "Porto",
    "state": "Porto",
    "country": "Portugal",
    "tz": "Europe/Lisbon",
    "type": "Airports",
    "direct_flights": "48",
    "carriers": "26",
    "stateCode": "",
    "countryCode": "PT",
    "location": {
      "type": "Point",
      "coordinates": [
        -8.67341,
        41.2372
      ]
    }
  },
  {
    "code": "RHO",
    "name": "Paradisi Airport",
    "city": "Rhodes",
    "state": "Notio Aigaio",
    "country": "Greece",
    "tz": "Europe/Athens",
    "type": "Airports",
    "direct_flights": "48",
    "carriers": "21",
    "stateCode": "",
    "countryCode": "GR",
    "location": {
      "type": "Point",
      "coordinates": [
        28.0867,
        36.4044
      ]
    }
  },
  {
    "code": "RDU",
    "name": "Durham International Airport",
    "city": "Raleigh",
    "state": "North Carolina",
    "country": "United States",
    "tz": "America/New_York",
    "type": "Airports",
    "direct_flights": "47",
    "carriers": "44",
    "stateCode": "NC",
    "countryCode": "US",
    "location": {
      "type": "Point",
      "coordinates": [
        -78.7923,
        35.8729
      ]
    }
  },
  {
    "code": "TLS",
    "name": "Blagnac Airport",
    "city": "Toulouse",
    "state": "Midi-Pyrenees",
    "country": "France",
    "tz": "Europe/Paris",
    "type": "Airports",
    "direct_flights": "47",
    "carriers": "43",
    "stateCode": "",
    "countryCode": "FR",
    "location": {
      "type": "Point",
      "coordinates": [
        1.3747,
        43.6294
      ]
    }
  },
  {
    "code": "URC",
    "name": "Diwopu Airport",
    "city": "Urumqi",
    "state": "Xinjiang",
    "country": "China",
    "tz": "Asia/Shanghai",
    "type": "Airports",
    "direct_flights": "47",
    "carriers": "18",
    "stateCode": "",
    "countryCode": "CN",
    "location": {
      "type": "Point",
      "coordinates": [
        87.4667,
        43.9333
      ]
    }
  },
  {
    "code": "GOT",
    "name": "Gothenburg Airport",
    "city": "Gothenburg",
    "state": "Vastra Gotaland",
    "country": "Sweden",
    "tz": "Europe/Stockholm",
    "type": "Airports",
    "direct_flights": "46",
    "carriers": "43",
    "stateCode": "",
    "countryCode": "SE",
    "location": {
      "type": "Point",
      "coordinates": [
        12.2957,
        57.6693
      ]
    }
  },
  {
    "code": "HGH",
    "name": "Jianoiao Airport",
    "city": "Hangzhou",
    "state": "Zhejiang",
    "country": "China",
    "tz": "Asia/Shanghai",
    "type": "Airports",
    "direct_flights": "46",
    "carriers": "28",
    "stateCode": "",
    "countryCode": "CN",
    "location": {
      "type": "Point",
      "coordinates": [
        120.234,
        30.3332
      ]
    }
  },
  {
    "code": "IND",
    "name": "Indianapolis International Airport",
    "city": "Indianapolis",
    "state": "Indiana",
    "country": "United States",
    "tz": "America/New_York",
    "type": "Airports",
    "direct_flights": "46",
    "carriers": "39",
    "stateCode": "IN",
    "countryCode": "US",
    "location": {
      "type": "Point",
      "coordinates": [
        -86.2707,
        39.7322
      ]
    }
  },
  {
    "code": "LEJ",
    "name": "Leipzig-Halle Airport",
    "city": "Leipzig-Halle",
    "state": "Saxony",
    "country": "Germany",
    "tz": "Europe/Berlin",
    "type": "Airports",
    "direct_flights": "46",
    "carriers": "31",
    "stateCode": "",
    "countryCode": "DE",
    "location": {
      "type": "Point",
      "coordinates": [
        12.2201,
        51.4197
      ]
    }
  },
  {
    "code": "PER",
    "name": "Perth International Airport",
    "city": "Perth",
    "state": "Western Australia",
    "country": "Australia",
    "tz": "Australia/Perth",
    "type": "Airports",
    "direct_flights": "46",
    "carriers": "36",
    "stateCode": "WA",
    "countryCode": "AU",
    "location": {
      "type": "Point",
      "coordinates": [
        115.961,
        -31.9336
      ]
    }
  },
  {
    "code": "AER",
    "name": "Adler Airport",
    "city": "Sochi",
    "state": "Krasnodarskiy Kray",
    "country": "Russia",
    "tz": "Europe/Moscow",
    "type": "Airports",
    "direct_flights": "45",
    "carriers": "31",
    "stateCode": "",
    "countryCode": "RU",
    "location": {
      "type": "Point",
      "coordinates": [
        39.9552,
        43.447
      ]
    }
  },
  {
    "code": "CSX",
    "name": "Huanghua Airport",
    "city": "Changsha",
    "state": "Hunan",
    "country": "China",
    "tz": "Asia/Chongqing",
    "type": "Airports",
    "direct_flights": "45",
    "carriers": "20",
    "stateCode": "",
    "countryCode": "CN",
    "location": {
      "type": "Point",
      "coordinates": [
        112.958,
        28.0711
      ]
    }
  },
  {
    "code": "CTA",
    "name": "Catania Fontanarossa Airport",
    "city": "Catania",
    "state": "Sicily",
    "country": "Italy",
    "tz": "Europe/Rome",
    "type": "Airports",
    "direct_flights": "45",
    "carriers": "40",
    "stateCode": "",
    "countryCode": "IT",
    "location": {
      "type": "Point",
      "coordinates": [
        15.0672,
        37.4696
      ]
    }
  },
  {
    "code": "DMM",
    "name": "King Fahd International Airport",
    "city": "Dammam",
    "state": "Ash Sharqiyah",
    "country": "Saudi Arabia",
    "tz": "Asia/Riyadh",
    "type": "Airports",
    "direct_flights": "45",
    "carriers": "29",
    "stateCode": "",
    "countryCode": "SA",
    "location": {
      "type": "Point",
      "coordinates": [
        49.8058,
        26.4722
      ]
    }
  },
  {
    "code": "FUE",
    "name": "Puerto del Rosario Airport",
    "city": "Puerto del Rosario",
    "state": "Canary Islands",
    "country": "Spain",
    "tz": "Atlantic/Canary",
    "type": "Airports",
    "direct_flights": "45",
    "carriers": "27",
    "stateCode": "",
    "countryCode": "ES",
    "location": {
      "type": "Point",
      "coordinates": [
        -13.9998,
        28.3997
      ]
    }
  },
  {
    "code": "KJA",
    "name": "Yelovaya Airport",
    "city": "Krasnojarsk",
    "state": "Krasnoyarskiy Kray",
    "country": "Russia",
    "tz": "Asia/Krasnoyarsk",
    "type": "Airports",
    "direct_flights": "45",
    "carriers": "12",
    "stateCode": "",
    "countryCode": "RU",
    "location": {
      "type": "Point",
      "coordinates": [
        92.4987,
        56.1688
      ]
    }
  },
  {
    "code": "KRK",
    "name": "Balice Airport",
    "city": "Krakow",
    "state": "Małopolskie",
    "country": "Poland",
    "tz": "Europe/Warsaw",
    "type": "Airports",
    "direct_flights": "45",
    "carriers": "29",
    "stateCode": "",
    "countryCode": "PL",
    "location": {
      "type": "Point",
      "coordinates": [
        19.8011,
        50.0741
      ]
    }
  },
  {
    "code": "PIT",
    "name": "Pittsburgh International Airport",
    "city": "Pittsburgh",
    "state": "Pennsylvania",
    "country": "United States",
    "tz": "America/New_York",
    "type": "Airports",
    "direct_flights": "45",
    "carriers": "50",
    "stateCode": "PA",
    "countryCode": "US",
    "location": {
      "type": "Point",
      "coordinates": [
        -80.2328,
        40.4914
      ]
    }
  },
  {
    "code": "SGN",
    "name": "Tan Son Nhut Airport",
    "city": "Ho Chi Minh City",
    "state": "Ho Chi Minh",
    "country": "Vietnam",
    "tz": "Asia/Ho_Chi_Minh",
    "type": "Airports",
    "direct_flights": "45",
    "carriers": "48",
    "stateCode": "",
    "countryCode": "VN",
    "location": {
      "type": "Point",
      "coordinates": [
        106.658,
        10.8191
      ]
    }
  },
  {
    "code": "ALA",
    "name": "Alma Ata Airport",
    "city": "Almaty",
    "state": "Almaty",
    "country": "Kazakhstan",
    "tz": "Asia/Almaty",
    "type": "Airports",
    "direct_flights": "44",
    "carriers": "36",
    "stateCode": "",
    "countryCode": "KZ",
    "location": {
      "type": "Point",
      "coordinates": [
        77.0319,
        43.3608
      ]
    }
  },
  {
    "code": "BOD",
    "name": "Bordeaux Airport",
    "city": "Bordeaux",
    "state": "Aquitaine",
    "country": "France",
    "tz": "Europe/Paris",
    "type": "Airports",
    "direct_flights": "44",
    "carriers": "33",
    "stateCode": "",
    "countryCode": "FR",
    "location": {
      "type": "Point",
      "coordinates": [
        -0.70278,
        44.8291
      ]
    }
  },
  {
    "code": "EZE",
    "name": "Ministro Pistarini International Airport",
    "city": "Buenos Aires",
    "state": "Buenos Aires",
    "country": "Argentina",
    "tz": "America/Buenos_Aires",
    "type": "Airports",
    "direct_flights": "44",
    "carriers": "36",
    "stateCode": "",
    "countryCode": "AR",
    "location": {
      "type": "Point",
      "coordinates": [
        -58.5333,
        -34.82
      ]
    },
    "macCode": "BUE"
  },
  {
    "code": "KHI",
    "name": "Karachi Civil Airport",
    "city": "Karachi",
    "state": "Sindh",
    "country": "Pakistan",
    "tz": "Asia/Karachi",
    "type": "Airports",
    "direct_flights": "44",
    "carriers": "29",
    "stateCode": "",
    "countryCode": "PK",
    "location": {
      "type": "Point",
      "coordinates": [
        67.1518,
        24.8984
      ]
    }
  },
  {
    "code": "MAA",
    "name": "Chennai International Airport",
    "city": "Chennai",
    "state": "Tamil Nadu",
    "country": "India",
    "tz": "Asia/Kolkata",
    "type": "Airports",
    "direct_flights": "44",
    "carriers": "42",
    "stateCode": "",
    "countryCode": "IN",
    "location": {
      "type": "Point",
      "coordinates": [
        80.1634,
        12.9849
      ]
    }
  },
  {
    "code": "SAT",
    "name": "San Antonio International Airport",
    "city": "San Antonio",
    "state": "Texas",
    "country": "United States",
    "tz": "America/Chicago",
    "type": "Airports",
    "direct_flights": "44",
    "carriers": "34",
    "stateCode": "TX",
    "countryCode": "US",
    "location": {
      "type": "Point",
      "coordinates": [
        -98.4729,
        29.5252
      ]
    }
  },
  {
    "code": "SHE",
    "name": "Dongta Airport",
    "city": "Shenyang",
    "state": "Liaoning",
    "country": "China",
    "tz": "Asia/Shanghai",
    "type": "Airports",
    "direct_flights": "44",
    "carriers": "29",
    "stateCode": "",
    "countryCode": "CN",
    "location": {
      "type": "Point",
      "coordinates": [
        123.529,
        41.7857
      ]
    }
  },
  {
    "code": "SOU",
    "name": "Southampton International Airport",
    "city": "Eastleigh near Southampton",
    "state": "England",
    "country": "United Kingdom",
    "tz": "Europe/London",
    "type": "Airports",
    "direct_flights": "44",
    "carriers": "9",
    "stateCode": "",
    "countryCode": "GB",
    "location": {
      "type": "Point",
      "coordinates": [
        -1.36139,
        50.9512
      ]
    }
  },
  {
    "code": "XIY",
    "name": "Hsien Yang Airport",
    "city": "Xi'an",
    "state": "Shaanxi",
    "country": "China",
    "tz": "Asia/Shanghai",
    "type": "Airports",
    "direct_flights": "44",
    "carriers": "23",
    "stateCode": "",
    "countryCode": "CN",
    "location": {
      "type": "Point",
      "coordinates": [
        108.7,
        34.3667
      ]
    },
    "macCode": "SIA"
  },
  {
    "code": "YEG",
    "name": "Edmonton International Airport",
    "city": "Edmonton",
    "state": "Alberta",
    "country": "Canada",
    "tz": "America/Edmonton",
    "type": "Airports",
    "direct_flights": "44",
    "carriers": "27",
    "stateCode": "AB",
    "countryCode": "CA",
    "location": {
      "type": "Point",
      "coordinates": [
        -113.584,
        53.3078
      ]
    },
    "macCode": "YEA"
  },
  {
    "code": "ADD",
    "name": "Bole International Airport",
    "city": "Addis Ababa",
    "state": "Debub Shewa",
    "country": "Ethiopia",
    "tz": "Africa/Addis_Ababa",
    "type": "Airports",
    "direct_flights": "43",
    "carriers": "25",
    "stateCode": "",
    "countryCode": "ET",
    "location": {
      "type": "Point",
      "coordinates": [
        38.8011,
        8.9783
      ]
    }
  },
  {
    "code": "EVN",
    "name": "Yerevan-Parakar Airport",
    "city": "Yerevan",
    "state": "Armavir",
    "country": "Armenia",
    "tz": "Asia/Yerevan",
    "type": "Airports",
    "direct_flights": "43",
    "carriers": "29",
    "stateCode": "",
    "countryCode": "AM",
    "location": {
      "type": "Point",
      "coordinates": [
        44.4065,
        40.1573
      ]
    }
  },
  {
    "code": "GDL",
    "name": "Don Miguel Hidalgo International Airport",
    "city": "Guadalajara",
    "state": "Jalisco",
    "country": "Mexico",
    "tz": "America/Mexico_City",
    "type": "Airports",
    "direct_flights": "43",
    "carriers": "29",
    "stateCode": "",
    "countryCode": "MX",
    "location": {
      "type": "Point",
      "coordinates": [
        -103.322,
        20.5347
      ]
    }
  },
  {
    "code": "HNL",
    "name": "Honolulu International Airport",
    "city": "Honolulu",
    "state": "Hawaii",
    "country": "United States",
    "tz": "Pacific/Honolulu",
    "type": "Airports",
    "direct_flights": "43",
    "carriers": "36",
    "stateCode": "HI",
    "countryCode": "US",
    "location": {
      "type": "Point",
      "coordinates": [
        -157.919,
        21.3358
      ]
    }
  },
  {
    "code": "SCL",
    "name": "Arturo Merino Benitez International Airport",
    "city": "Santiago",
    "state": "Santiago",
    "country": "Chile",
    "tz": "America/Santiago",
    "type": "Airports",
    "direct_flights": "43",
    "carriers": "36",
    "stateCode": "",
    "countryCode": "CL",
    "location": {
      "type": "Point",
      "coordinates": [
        -70.785,
        -33.39
      ]
    }
  },
  {
    "code": "YOW",
    "name": "Ottawa International Airport",
    "city": "Ottawa",
    "state": "Ontario",
    "country": "Canada",
    "tz": "America/Toronto",
    "type": "Airports",
    "direct_flights": "43",
    "carriers": "32",
    "stateCode": "ON",
    "countryCode": "CA",
    "location": {
      "type": "Point",
      "coordinates": [
        -75.6666,
        45.3248
      ]
    },
    "macCode": "YOW"
  },
  {
    "code": "CCU",
    "name": "Netaji Subhash Chandra Bose International Airpor",
    "city": "Kolkata",
    "state": "West Bengal",
    "country": "India",
    "tz": "Asia/Kolkata",
    "type": "Airports",
    "direct_flights": "42",
    "carriers": "24",
    "stateCode": "",
    "countryCode": "IN",
    "location": {
      "type": "Point",
      "coordinates": [
        88.4506,
        22.6572
      ]
    }
  },
  {
    "code": "LOS",
    "name": "Lagos Murtala Muhammed Airport",
    "city": "Lagos",
    "state": "Lagos",
    "country": "Nigeria",
    "tz": "Africa/Lagos",
    "type": "Airports",
    "direct_flights": "42",
    "carriers": "37",
    "stateCode": "",
    "countryCode": "NG",
    "location": {
      "type": "Point",
      "coordinates": [
        3.3222,
        6.575
      ]
    }
  },
  {
    "code": "SJO",
    "name": "Juan Santamaria International Airport",
    "city": "San José",
    "state": "Alajuela",
    "country": "Costa Rica",
    "tz": "America/Costa_Rica",
    "type": "Airports",
    "direct_flights": "42",
    "carriers": "28",
    "stateCode": "",
    "countryCode": "CR",
    "location": {
      "type": "Point",
      "coordinates": [
        -84.2114,
        9.9919
      ]
    }
  },
  {
    "code": "SSH",
    "name": "Ras Nasrani Airport",
    "city": "Sharm el-Sheikh",
    "state": "Janub Sina'",
    "country": "Egypt",
    "tz": "Africa/Cairo",
    "type": "Airports",
    "direct_flights": "42",
    "carriers": "23",
    "stateCode": "",
    "countryCode": "EG",
    "location": {
      "type": "Point",
      "coordinates": [
        34.3897,
        27.975
      ]
    }
  },
  {
    "code": "WUH",
    "name": "Wuchang Nanhu Airport",
    "city": "Wuhan",
    "state": "Hubei",
    "country": "China",
    "tz": "Asia/Shanghai",
    "type": "Airports",
    "direct_flights": "42",
    "carriers": "19",
    "stateCode": "",
    "countryCode": "CN",
    "location": {
      "type": "Point",
      "coordinates": [
        114.31,
        30.5069
      ]
    }
  },
  {
    "code": "ABQ",
    "name": "Albuquerque International Airport",
    "city": "Albuquerque",
    "state": "New Mexico",
    "country": "United States",
    "tz": "America/Denver",
    "type": "Airports",
    "direct_flights": "41",
    "carriers": "25",
    "stateCode": "NM",
    "countryCode": "US",
    "location": {
      "type": "Point",
      "coordinates": [
        -106.625,
        35.0494
      ]
    }
  },
  {
    "code": "BDL",
    "name": "Bradley International Airport",
    "city": "Windsor Locks",
    "state": "Connecticut",
    "country": "United States",
    "tz": "America/New_York",
    "type": "Airports",
    "direct_flights": "41",
    "carriers": "31",
    "stateCode": "CT",
    "countryCode": "US",
    "location": {
      "type": "Point",
      "coordinates": [
        -72.6816,
        41.9271
      ]
    },
    "macCode": "HFD"
  },
  {
    "code": "BEG",
    "name": "Surcin Airport",
    "city": "Belgrade",
    "state": "Beograd",
    "country": "Serbia",
    "tz": "Europe/Belgrade",
    "type": "Airports",
    "direct_flights": "41",
    "carriers": "22",
    "stateCode": "",
    "countryCode": "RS",
    "location": {
      "type": "Point",
      "coordinates": [
        20.3122,
        44.8192
      ]
    }
  },
  {
    "code": "CMH",
    "name": "Port Columbus International Airport",
    "city": "Columbus",
    "state": "Ohio",
    "country": "United States",
    "tz": "America/New_York",
    "type": "Airports",
    "direct_flights": "41",
    "carriers": "35",
    "stateCode": "OH",
    "countryCode": "US",
    "location": {
      "type": "Point",
      "coordinates": [
        -82.8877,
        39.9974
      ]
    }
  },
  {
    "code": "DTM",
    "name": "Dortmund Airport",
    "city": "Dortmund",
    "state": "North Rhine-Westphalia",
    "country": "Germany",
    "tz": "Europe/Berlin",
    "type": "Airports",
    "direct_flights": "41",
    "carriers": "11",
    "stateCode": "",
    "countryCode": "DE",
    "location": {
      "type": "Point",
      "coordinates": [
        7.60451,
        51.5123
      ]
    }
  },
  {
    "code": "MSY",
    "name": "New Orleans International Airport",
    "city": "New Orleans",
    "state": "Louisiana",
    "country": "United States",
    "tz": "America/Chicago",
    "type": "Airports",
    "direct_flights": "41",
    "carriers": "44",
    "stateCode": "LA",
    "countryCode": "US",
    "location": {
      "type": "Point",
      "coordinates": [
        -90.2569,
        29.983
      ]
    }
  },
  {
    "code": "SNN",
    "name": "Shannon Airport",
    "city": "Shannon",
    "state": "",
    "country": "Ireland",
    "tz": "Europe/Dublin",
    "type": "Airports",
    "direct_flights": "41",
    "carriers": "15",
    "stateCode": "",
    "countryCode": "IE",
    "location": {
      "type": "Point",
      "coordinates": [
        -8.92047,
        52.6931
      ]
    }
  },
  {
    "code": "YHZ",
    "name": "Halifax International Airport",
    "city": "Halifax",
    "state": "Nova Scotia",
    "country": "Canada",
    "tz": "America/Halifax",
    "type": "Airports",
    "direct_flights": "41",
    "carriers": "23",
    "stateCode": "NS",
    "countryCode": "CA",
    "location": {
      "type": "Point",
      "coordinates": [
        -63.5154,
        44.8868
      ]
    }
  },
  {
    "code": "HAV",
    "name": "Jose Marti International Airport",
    "city": "Havana",
    "state": "Ciudad de la Habana",
    "country": "Cuba",
    "tz": "America/Havana",
    "type": "Airports",
    "direct_flights": "40",
    "carriers": "26",
    "stateCode": "",
    "countryCode": "CU",
    "location": {
      "type": "Point",
      "coordinates": [
        -82.4075,
        22.9894
      ]
    }
  },
  {
    "code": "LJU",
    "name": "Ljubljana Airport",
    "city": "Ljubljana",
    "state": "Kranj",
    "country": "Slovenia",
    "tz": "Europe/Belgrade",
    "type": "Airports",
    "direct_flights": "40",
    "carriers": "28",
    "stateCode": "",
    "countryCode": "SI",
    "location": {
      "type": "Point",
      "coordinates": [
        14.4608,
        46.2247
      ]
    }
  },
  {
    "code": "PIK",
    "name": "Glasgow Prestwick International Airport",
    "city": "Glasgow",
    "state": "Scotland",
    "country": "United Kingdom",
    "tz": "Europe/London",
    "type": "Airports",
    "direct_flights": "40",
    "carriers": "9",
    "stateCode": "",
    "countryCode": "GB",
    "location": {
      "type": "Point",
      "coordinates": [
        -4.6109,
        55.5091
      ]
    }
  },
  {
    "code": "PUJ",
    "name": "Punta Cana Airport",
    "city": "Higuey",
    "state": "La Altagracia",
    "country": "Dominican Republic",
    "tz": "America/Santo_Domingo",
    "type": "Airports",
    "direct_flights": "40",
    "carriers": "27",
    "stateCode": "",
    "countryCode": "DO",
    "location": {
      "type": "Point",
      "coordinates": [
        -68.3469,
        18.5675
      ]
    }
  },
  {
    "code": "SVQ",
    "name": "Sevilla Airport",
    "city": "Sevilla",
    "state": "Andalucia",
    "country": "Spain",
    "tz": "Europe/Madrid",
    "type": "Airports",
    "direct_flights": "40",
    "carriers": "20",
    "stateCode": "",
    "countryCode": "ES",
    "location": {
      "type": "Point",
      "coordinates": [
        -5.89796,
        37.4224
      ]
    }
  },
  {
    "code": "IKA",
    "name": "Imam Khomeini International Airport",
    "city": "Tehran",
    "state": "Tehran",
    "country": "Iran",
    "tz": "Asia/Tehran",
    "type": "Airports",
    "direct_flights": "39",
    "carriers": "27",
    "stateCode": "",
    "countryCode": "IR",
    "location": {
      "type": "Point",
      "coordinates": [
        51.4436,
        35.5683
      ]
    },
    "macCode": "THR"
  },